id,categories,street,locality,postal_code,lat,lng,rent_gross,rooms,living_space,floor,dist_transit_m,dist_grocery_m,dist_gym_m,dist_hsg_m,homegate_url,dist_center_m,predicted_rent,valuation_gap,valuation_label,walk_hsg_min,walk_transit_min,walk_grocery_min,walk_gym_min,walk_center_min,Unnamed: 25,image_url
4003056053,APARTMENT|FLAT,Zilstrasse 10,St. Gallen,9016,47.441135314101,9.404961592479,1550.0,3.5,76.0,2.0,197.3,644.8,1619.6,3070.0,https://www.homegate.ch/rent/4003056053,3221.9,1573.0,,,38.4,2.5,8.1,20.2,40.3,,
4003003139,APARTMENT|FLAT,Im Hölzli 29,St. Gallen,9000,47.428474314101,9.363851592474,1350.0,3.5,70.0,2.0,141.3,1352.4,1432.7,1691.8,https://www.homegate.ch/rent/4003003139,1836.3,1497.0,,,21.1,1.8,16.9,17.9,23.0,,
4002704306,APARTMENT|FLAT,Flurhofstrasse 158A,St. Gallen,9000,47.431889313109,9.404711592479,2690.0,4.0,155.0,0.0,170.2,511.8,823.1,2903.4,https://www.homegate.ch/rent/4002704306,2463.4,2190.0,,,36.3,2.1,6.4,10.3,30.8,,
4002572848,APARTMENT|FLAT,Vonwilstrasse 51,St.Gallen,9000,47.419474317105,9.355461592471,1920.0,3.5,101.0,2.0,134.5,222.2,185.4,2437.6,https://www.homegate.ch/rent/4002572848,2056.4,1863.0,,,30.5,1.7,2.8,2.3,25.7,,
4003091933,APARTMENT|FLAT,Zweibruggenmühlestr. 7,St. Gallen,9014,47.407254314101,9.327461592473,1840.0,3.5,92.0,0.0,148.7,695.6,1391.2,5002.9,https://www.homegate.ch/rent/4003091933,4504.7,1782.0,,,62.5,1.9,8.7,17.4,56.3,,
4003068923,APARTMENT|FLAT,Feldbachstr. 10,St. Gallen,9000,47.420754314101,9.354631592475,1460.0,4.0,80.0,3.0,163.8,100.1,100.8,2432.3,https://www.homegate.ch/rent/4003068923,2051.1,1478.0,,,30.4,2.0,1.3,1.3,25.6,,
4002980255,APARTMENT|FLAT,Feldbachstr. 10,St. Gallen,9000,47.420754314101,9.354631592475,1450.0,4.0,80.0,1.0,163.8,100.1,100.8,2432.3,https://www.homegate.ch/rent/4002980255,2051.1,1521.0,,,30.4,2.0,1.3,1.3,25.6,,
4002718004,APARTMENT|FLAT,Vonwilstrasse 51,St. Gallen,9000,47.419474317105,9.355461592471,1190.0,1.5,47.0,7.0,134.5,222.2,185.4,2437.6,https://www.homegate.ch/rent/4002718004,2056.4,1193.0,,,30.5,1.7,2.8,2.3,25.7,,
4003125096,APARTMENT|FLAT,Boppartshofstrasse 2,St. Gallen,9014,47.406293310108,9.336221592477,1750.0,3.5,83.0,3.0,99.1,697.3,1363.3,4655.9,https://www.homegate.ch/rent/4003125096,3889.5,1791.0,,,58.2,1.2,8.7,17.0,48.6,,
4003119749,APARTMENT|FLAT,Zweibruggenmühlestr. 9,St. Gallen,9014,47.407330314102,9.327881592471,1830.0,3.5,92.0,0.0,104.4,665.8,1361.3,4973.0,https://www.homegate.ch/rent/4003119749,4474.9,1690.0,,,62.2,1.3,8.3,17.0,55.9,,
4003055073,APARTMENT|FLAT,Seeblickstr. 10,St. Gallen,9010,47.440455314102,9.378091592471,1995.0,3.5,76.0,1.0,61.2,1136.2,1603.5,1100.6,https://www.homegate.ch/rent/4003055073,2203.0,1868.0,,,13.8,0.8,14.2,20.0,27.5,,
4003023658,APARTMENT|FLAT,Favrestr.,St. Gallen,9016,47.437584314101,9.412971592471,1860.0,3.5,88.0,0.0,38.1,488.8,1660.5,3570.5,https://www.homegate.ch/rent/4003023658,3405.9,1557.0,,,44.6,0.5,6.1,20.8,42.6,,
4003015438,APARTMENT|FLAT,Grossackerstr. 1,St. Gallen,9000,47.430444315103,9.392531592479,2590.0,4.5,112.0,5.0,49.0,211.7,325.2,1844.0,https://www.homegate.ch/rent/4003015438,1508.3,2132.0,,,23.0,0.6,2.6,4.1,18.9,,
4002968904,APARTMENT|FLAT|DUPLEX,Ludwigstr. 5,St. Gallen,9010,47.439844314101,9.377471592471,1815.0,2.5,72.0,0.0,48.7,1192.1,1570.8,1067.8,https://www.homegate.ch/rent/4002968904,2170.2,1772.0,,,13.3,0.6,14.9,19.6,27.1,,
4002949443,APARTMENT|FLAT,Seeblickstr. 11,St. Gallen,9010,47.440333313101,9.377561592472,1885.0,3.5,68.0,1.0,56.5,1155.5,1598.8,1095.9,https://www.homegate.ch/rent/4002949443,2198.3,1952.0,,,13.7,0.7,14.4,20.0,27.5,,
4002900437,APARTMENT|FLAT,Langgasse 125,St. Gallen,9008,47.443204319107,9.395201592471,1510.0,2.0,46.0,2.0,154.8,1006.6,1653.3,2202.8,https://www.homegate.ch/rent/4002900437,2806.5,1214.0,,,27.5,1.9,12.6,20.7,35.1,,
4003042647,APARTMENT|FLAT,Dürrenmattstrasse 38,St. Gallen,9000,47.417509315103,9.352431592473,1920.0,3.5,69.0,1.0,172.1,259.3,445.1,2773.1,https://www.homegate.ch/rent/4003042647,2393.6,1577.0,,,34.7,2.2,3.2,5.6,29.9,,
4003109225,APARTMENT|FLAT,Lustgartenstrasse 14,St. Gallen,9000,47.420954319107,9.364421592471,2020.0,4.0,100.0,5.0,84.3,567.5,644.2,1747.7,https://www.homegate.ch/rent/4003109225,1228.2,2084.0,,,21.8,1.1,7.1,8.1,15.4,,
4003032721,APARTMENT|FLAT,Rorschacherstrasse 234,St.Gallen,9016,47.435764316104,9.403881592471,1910.0,4.5,100.0,2.0,83.7,217.2,839.4,2811.2,https://www.homegate.ch/rent/4003032721,2584.8,1986.0,,,35.1,1.0,2.7,10.5,32.3,,
4002786571,APARTMENT|FLAT,Davidstrasse 24,St. Gallen,9000,47.420655318106,9.369621592477,2160.0,3.5,77.0,3.0,207.8,204.7,294.4,1667.3,https://www.homegate.ch/rent/4002786571,747.5,1647.0,,,20.8,2.6,2.6,3.7,9.3,,
4003124772,APARTMENT|FLAT,Brunnenbergstrasse 5,St. Gallen,9000,47.424104319107,9.383271592472,1250.0,2.5,60.0,1.0,253.1,501.1,304.5,1542.1,https://www.homegate.ch/rent/4003124772,562.3,1448.0,,,19.3,3.2,6.3,3.8,7.0,,
4003112695,APARTMENT|FLAT,Krontalstrasse 10,St. Gallen,9000,47.432564314102,9.399891592476,1690.0,4.0,88.0,1.0,109.3,358.2,438.6,2486.9,https://www.homegate.ch/rent/4003112695,2184.1,1615.0,,,31.1,1.4,4.5,5.5,27.3,,
4003101259,APARTMENT|FLAT,Multergasse 11,St. Gallen,9000,47.424304313101,9.376111592471,1900.0,2.5,65.0,4.0,286.3,277.8,117.8,1108.8,https://www.homegate.ch/rent/4003101259,192.5,2042.0,,,13.9,3.6,3.5,1.5,2.4,,
4003101253,APARTMENT|FLAT,Burgstrasse 59,St. Gallen,9000,47.417494313109,9.358991592478,920.0,1.0,28.0,4.0,119.9,540.8,29.9,2303.2,https://www.homegate.ch/rent/4003101253,1805.0,898.0,,,28.8,1.5,6.8,0.4,22.6,,
4003070481,APARTMENT|ROOF_FLAT,Falkenburgstrasse 5,St. Gallen,9000,47.419138313109,9.376001592478,1330.0,2.0,65.0,3.0,313.4,801.7,648.2,2095.6,https://www.homegate.ch/rent/4003070481,915.2,1445.0,,,26.2,3.9,10.0,8.1,11.4,,
4003122386,APARTMENT|DUPLEX,Gerhaldenstrasse 34,St. Gallen,9008,47.438074313101,9.384011592474,2590.0,4.0,120.0,2.0,505.4,599.6,1745.2,1184.4,https://www.homegate.ch/rent/4003122386,2026.0,2509.0,,,14.8,6.3,7.5,21.8,25.3,,
4003122376,APARTMENT|ROOF_FLAT,Zürcherstrasse 126B,St. Gallen,9000,47.416594314101,9.343451592471,1674.0,4.5,113.0,3.0,237.6,659.5,431.0,3417.6,https://www.homegate.ch/rent/4003122376,3036.4,2108.0,,,42.7,3.0,8.2,5.4,38.0,,
4002485116,APARTMENT|FLAT,Stockbergstrasse 4,St. Gallen,9014,47.407345313101,9.334101592471,1490.0,2.5,54.0,2.0,117.4,435.8,1239.2,4649.0,https://www.homegate.ch/rent/4002485116,4150.9,1548.0,,,58.1,1.5,5.4,15.5,51.9,,
4003094116,APARTMENT|FLAT,Sonnenhaldenstrasse 62,St. Gallen,9010,47.445304313101,9.374071592477,2680.0,6.0,123.0,0.0,1372.8,2503.6,2799.4,2296.4,https://www.homegate.ch/rent/4003094116,3398.9,2404.0,,,28.7,17.2,31.3,35.0,42.5,,
4002997958,APARTMENT|ROOF_FLAT,Waldaustrasse 10,St. Gallen,9000,47.419934314101,9.352241592474,1400.0,3.5,67.0,5.0,220.8,189.2,233.7,2644.3,https://www.homegate.ch/rent/4002997958,2263.1,1767.0,,,33.1,2.8,2.4,2.9,28.3,,
4003129864,APARTMENT|FLAT,Speicherstrasse 17,St. Gallen,9000,47.424604316104,9.383561592475,1050.0,2.5,38.0,1.0,276.4,524.5,257.3,1565.4,https://www.homegate.ch/rent/4003129864,596.6,1269.0,,,19.6,3.5,6.6,3.2,7.5,,
4003119974,APARTMENT|FLAT,Spyristrasse 9,St. Gallen,9000,47.424563317105,9.374891592475,1650.0,3.5,85.0,3.0,125.9,170.8,253.4,1068.7,https://www.homegate.ch/rent/4003119974,312.3,1680.0,,,13.4,1.6,2.1,3.2,3.9,,
4002684658,APARTMENT|FLAT,Zweibruggenmühlestr. 5,St. Gallen,9014,47.407244313109,9.326961592475,1920.0,3.5,85.0,2.0,88.6,741.0,1432.2,5048.2,https://www.homegate.ch/rent/4002684658,4550.0,1711.0,,,63.1,1.1,9.3,17.9,56.9,,
4002403487,APARTMENT|FLAT,Vonwilstrasse 51,St.Gallen,9000,47.419474317105,9.355461592471,1760.0,2.5,89.0,2.0,134.5,222.2,185.4,2437.6,https://www.homegate.ch/rent/4002403487,2056.4,1622.0,,,30.5,1.7,2.8,2.3,25.7,,
4003055770,APARTMENT|FLAT|DUPLEX,Am Bohl 6,St. Gallen,9000,47.426224318106,9.376921592473,2550.0,4.5,120.0,5.0,44.7,182.3,65.4,923.4,https://www.homegate.ch/rent/4003055770,407.5,2713.0,,,11.5,0.6,2.3,0.8,5.1,,
4002907269,APARTMENT|FLAT,Vonwilstrasse 51,St.Gallen,9000,47.419474317105,9.355461592471,970.0,1.0,32.0,8.0,134.5,222.2,185.4,2437.6,https://www.homegate.ch/rent/4002907269,2056.4,982.0,,,30.5,1.7,2.8,2.3,25.7,,
4002905017,APARTMENT|FLAT,Langgasse 125,St. Gallen,9008,47.443204319107,9.395201592471,1170.0,1.5,40.0,3.0,154.8,1006.6,1653.3,2202.8,https://www.homegate.ch/rent/4002905017,2806.5,1308.0,,,27.5,1.9,12.6,20.7,35.1,,
4002471306,APARTMENT|FLAT,St. Leonhardstrasse 75,St. Gallen,9000,47.420804319107,9.364811592475,2490.0,4.0,105.0,5.0,100.0,492.3,740.3,1763.3,https://www.homegate.ch/rent/4002471306,1147.4,2071.0,,,22.0,1.2,6.2,9.3,14.3,,
4003107069,APARTMENT|FLAT,Schorenstrasse 68,St. Gallen,9000,47.427010319107,9.363681592474,1190.0,2.0,52.0,2.0,121.6,1374.8,1455.1,1854.0,https://www.homegate.ch/rent/4003107069,1858.7,1375.0,,,23.2,1.5,17.2,18.2,23.2,,
4003051411,APARTMENT|FLAT,Gerhaldenstrasse 43,St. Gallen,9008,47.438864318106,9.383431592479,1590.0,3.0,67.0,1.0,278.1,624.3,1769.9,1209.1,https://www.homegate.ch/rent/4003051411,2050.7,1563.0,,,15.1,3.5,7.8,22.1,25.6,,
4003044681,APARTMENT|FLAT,Langgasse 92,St. Gallen,9008,47.440365313109,9.392451592475,1600.0,4.5,86.0,3.0,68.0,648.5,1360.7,1838.6,https://www.homegate.ch/rent/4003044681,2433.7,1628.0,,,23.0,0.8,8.1,17.0,30.4,,
4003037399,APARTMENT|FLAT,Goethestrasse 26,St. Gallen,9008,47.434584310108,9.381431592475,2750.0,4.5,118.0,0.0,549.1,521.5,994.4,757.6,https://www.homegate.ch/rent/4003037399,1540.9,2406.0,,,9.5,6.9,6.5,12.4,19.3,,
4003005216,APARTMENT|FLAT,Oberstrasse 205,St. Gallen,9000,47.412134318106,9.351951592475,1491.0,3.5,65.0,3.0,152.8,549.0,1003.2,3316.8,https://www.homegate.ch/rent/4003005216,2553.1,1428.0,,,41.5,1.9,6.9,12.5,31.9,,
4002967899,APARTMENT|FLAT,Langgasse 12,St. Gallen,9008,47.434515318106,9.385221592478,2710.0,4.5,147.0,2.0,99.8,150.8,1256.6,1055.0,https://www.homegate.ch/rent/4002967899,1569.6,2696.0,,,13.2,1.2,1.9,15.7,19.6,,
4002945445,APARTMENT|FLAT,Oberstrasse 209,St. Gallen,9000,47.411854317105,9.351211592471,1230.0,2.0,49.0,2.0,181.6,607.7,1061.9,3375.5,https://www.homegate.ch/rent/4002945445,2615.8,1153.0,,,42.2,2.3,7.6,13.3,32.7,,
4002915375,APARTMENT|FLAT,Falkensteinstrasse 54,St. Gallen,9006,47.430864314101,9.396831592472,2455.0,4.5,129.0,3.0,180.0,150.8,144.6,2260.0,https://www.homegate.ch/rent/4002915375,1924.3,2552.0,,,28.2,2.2,1.9,1.8,24.1,,
4002898973,APARTMENT|FLAT,Oberstrasse 205,St. Gallen,9000,47.412134318106,9.351951592475,1210.0,2.0,49.0,2.0,152.8,549.0,1003.2,3316.8,https://www.homegate.ch/rent/4002898973,2553.1,1212.0,,,41.5,1.9,6.9,12.5,31.9,,
4002826505,APARTMENT|FLAT|ROOF_FLAT,Heimstr. 12,St. Gallen,9014,47.414503313109,9.337311592471,2250.0,2.5,128.0,4.0,381.2,394.3,325.2,3929.1,https://www.homegate.ch/rent/4002826505,3547.9,2121.0,,,49.1,4.8,4.9,4.1,44.3,,
4003124234,APARTMENT|FLAT,Langgasse 165,St. Gallen,9008,47.450597314101,9.397871592473,1710.0,4.5,94.0,2.0,608.9,1748.9,2607.7,3206.2,https://www.homegate.ch/rent/4003124234,3788.7,1697.0,,,40.1,7.6,21.9,32.6,47.4,,
4003123795,APARTMENT|FLAT,Tablatstr. 12,St. Gallen,9016,47.437734317105,9.420421592471,940.0,1.5,41.0,4.0,71.2,782.3,2268.7,4192.1,https://www.homegate.ch/rent/4003123795,4014.1,1270.0,,,52.4,0.9,9.8,28.4,50.2,,
4003122540,APARTMENT|FLAT,Sankt Jakob-Strasse 48,St. Gallen,9000,47.430505317105,9.380371592479,1420.0,2.5,53.0,2.0,78.0,751.1,558.4,902.5,https://www.homegate.ch/rent/4003122540,976.3,1413.0,,,11.3,1.0,9.4,7.0,12.2,,
4003117588,APARTMENT|FLAT|DUPLEX,Espentobelstrasse 5a,St. Gallen,9008,47.440773313101,9.396921592473,1770.0,4.5,100.0,0.0,340.7,850.7,1420.9,2316.0,https://www.homegate.ch/rent/4003117588,2728.7,2003.0,,,29.0,4.3,10.6,17.8,34.1,,
4003107562,APARTMENT|FLAT,Vonwilstr. 15,St. Gallen,9000,47.417054317105,9.358801592476,1500.0,3.5,69.0,1.0,137.5,565.1,70.6,2373.6,https://www.homegate.ch/rent/4003107562,1865.3,1616.0,,,29.7,1.7,7.1,0.9,23.3,,
4003106652,APARTMENT|FLAT,Espenmoosstrasse 12,St. Gallen,9008,47.440745313109,9.395821592472,1595.0,2.5,74.0,4.0,212.3,815.2,1385.3,2187.5,https://www.homegate.ch/rent/4003106652,2693.1,1512.0,,,27.3,2.7,10.2,17.3,33.7,,
4003089134,APARTMENT|FLAT,Schwalbenstrasse 10,St. Gallen,9000,47.427026314101,9.383911592471,1960.0,3.5,93.0,2.0,160.2,573.1,232.3,1479.0,https://www.homegate.ch/rent/4003089134,742.8,1814.0,,,18.5,2.0,7.2,2.9,9.3,,
4003065992,APARTMENT|FLAT|ATTIC_FLAT,Langgasse 108/110,St. Gallen,9008,47.441614314101,9.393941592479,1640.0,3.5,81.0,3.0,84.6,801.0,1466.4,2017.6,https://www.homegate.ch/rent/4003065992,2612.8,1650.0,,,25.2,1.1,10.0,18.3,32.7,,
4003057513,APARTMENT|ROOF_FLAT,Boppartshofstrasse 6,St. Gallen,9014,47.406410313109,9.335561592474,1840.0,2.5,81.0,4.0,350.2,814.1,1480.1,4658.3,https://www.homegate.ch/rent/4003057513,3892.0,1554.0,,,58.2,4.4,10.2,18.5,48.6,,
4003055321,APARTMENT|FLAT,Demutstrasse 7,St. Gallen,9000,47.417524313109,9.380951592476,1925.0,4.5,90.0,2.0,126.1,1193.9,1040.4,2225.8,https://www.homegate.ch/rent/4003055321,1084.3,1680.0,,,27.8,1.6,14.9,13.0,13.6,,
4003047436,APARTMENT|FLAT,Walserstrasse 2,St. Gallen,9014,47.407124313101,9.334881592473,1410.0,3.5,68.0,1.0,69.9,476.3,1219.6,4629.5,https://www.homegate.ch/rent/4003047436,4131.3,1573.0,,,57.9,0.9,6.0,15.2,51.6,,
4003023271,APARTMENT|FLAT|DUPLEX,Tschudistrasse 42,St. Gallen,9000,47.416254318106,9.363671592473,2330.0,3.5,97.0,3.0,291.8,809.6,580.0,2352.0,https://www.homegate.ch/rent/4003023271,1427.5,1809.0,,,29.4,3.6,10.1,7.2,17.8,,
4002952962,APARTMENT|FLAT,Zilstrasse 48,St. Gallen,9016,47.443234317105,9.407471592474,1760.0,4.5,94.0,5.0,151.2,1047.9,1964.0,3414.4,https://www.homegate.ch/rent/4002952962,3566.4,1727.0,,,42.7,1.9,13.1,24.6,44.6,,
4002877046,APARTMENT|FLAT,Speicherstr. 25,St. Gallen,9000,47.424807314101,9.384631592479,1500.0,2.5,80.0,3.0,218.3,601.6,227.3,1642.5,https://www.homegate.ch/rent/4002877046,670.0,1586.0,,,20.5,2.7,7.5,2.8,8.4,,
4002866237,APARTMENT|FLAT,Rorschacherstrasse 116,St. Gallen,9000,47.430374313109,9.391841592473,2150.0,5.0,111.0,4.0,25.9,238.4,351.8,1788.7,https://www.homegate.ch/rent/4002866237,1453.0,2502.0,,,22.4,0.3,3.0,4.4,18.2,,
4002831643,APARTMENT|FLAT,Schibistr. 5,St. Gallen,9000,47.417163314102,9.348751592479,2070.0,4.5,104.0,3.0,111.0,474.5,634.7,2962.7,https://www.homegate.ch/rent/4002831643,2581.5,1998.0,,,37.0,1.4,5.9,7.9,32.3,,
4002824004,APARTMENT|FLAT,Blarerstr. 7,St. Gallen,9000,47.428724314102,9.385261592478,2005.0,3.5,115.0,2.0,101.0,811.6,492.8,1348.9,https://www.homegate.ch/rent/4002824004,994.9,2268.0,,,16.9,1.3,10.1,6.2,12.4,,
4002747928,APARTMENT|FLAT,Iddastrasse 30a,St. Gallen,9008,47.437544314101,9.388071592471,1700.0,4.5,86.0,3.0,69.6,322.2,1273.8,1370.8,https://www.homegate.ch/rent/4002747928,1997.0,1779.0,,,17.1,0.9,4.0,15.9,25.0,,
4002747921,APARTMENT|FLAT,Oberstrasse 201,St. Gallen,9000,47.412324315103,9.351221592473,1470.0,3.5,65.0,3.0,109.4,535.5,989.7,3303.3,https://www.homegate.ch/rent/4002747921,2537.0,1461.0,,,41.3,1.4,6.7,12.4,31.7,,
4002747863,APARTMENT|FLAT,Oberstrasse 207,St. Gallen,9000,47.411975315103,9.351601592472,1375.0,2.5,53.0,3.0,162.1,576.0,1030.2,3343.8,https://www.homegate.ch/rent/4002747863,2580.1,1369.0,,,41.8,2.0,7.2,12.9,32.3,,
4003129288,APARTMENT|FLAT,Langgasse 155,St. Gallen,9008,47.449394317105,9.397541592471,1490.0,3.5,77.0,2.0,92.5,1786.2,2467.1,3065.6,https://www.homegate.ch/rent/4003129288,3648.1,1496.0,,,38.3,1.2,22.3,30.8,45.6,,
4003127648,APARTMENT|FLAT,Rosenbergweg 21,St. Gallen,9000,47.421925315103,9.362381592472,1490.0,2.5,59.0,1.0,342.9,673.5,685.9,1797.4,https://www.homegate.ch/rent/4003127648,1416.2,1374.0,,,22.5,4.3,8.4,8.6,17.7,,
4003126809,APARTMENT|FLAT,Helvetiastrasse 51,St. Gallen,9000,47.434176315103,9.395331592476,1370.0,3.0,74.0,0.0,226.0,624.0,493.7,2062.9,https://www.homegate.ch/rent/4003126809,1999.2,1477.0,,,25.8,2.8,7.8,6.2,25.0,,
4003124626,APARTMENT|FLAT,Müller-Friedberg-Strasse 11,St. Gallen,9000,47.428864318106,9.375031592477,2410.0,5.0,130.0,1.0,138.7,615.2,132.1,722.1,https://www.homegate.ch/rent/4003124626,731.6,1293.0,,,9.0,1.7,7.7,1.7,9.1,,
4003116710,APARTMENT|FLAT,Lindenstrasse 81,St. Gallen,9000,47.433543316104,9.394741592471,1450.0,4.0,94.0,3.0,157.6,477.2,456.3,1934.8,https://www.homegate.ch/rent/4003116710,1961.8,1708.0,,,24.2,2.0,6.0,5.7,24.5,,
4003113199,APARTMENT|FLAT,Engelgasse 12a,St. Gallen,9000,47.426644310108,9.375051592478,1080.0,1.5,52.0,4.0,186.9,352.2,192.1,809.1,https://www.homegate.ch/rent/4003113199,479.6,1315.0,,,10.1,2.3,4.4,2.4,6.0,,
4003102594,APARTMENT|FLAT,Falkensteinstrasse 17,St. Gallen,9000,47.430315316104,9.392881592476,2390.0,4.5,104.0,3.0,57.7,186.0,260.2,1907.7,https://www.homegate.ch/rent/4003102594,1572.0,2070.0,,,23.8,0.7,2.3,3.3,19.6,,
4003102575,APARTMENT|FLAT,Neptunstrasse 4,St. Gallen,9000,47.430424315103,9.393141592476,1990.0,3.5,82.0,1.0,118.5,152.4,239.1,1927.3,https://www.homegate.ch/rent/4003102575,1591.6,1658.0,,,24.1,1.5,1.9,3.0,19.9,,
4003102573,APARTMENT|FLAT,Neptunstrasse 4,St. Gallen,9000,47.430424315103,9.393141592476,1550.0,2.5,58.0,1.0,118.5,152.4,239.1,1927.3,https://www.homegate.ch/rent/4003102573,1591.6,1502.0,,,24.1,1.5,1.9,3.0,19.9,,
4003090179,APARTMENT|FLAT,Langgasse 155,St. Gallen,9008,47.449394317105,9.397541592471,1490.0,3.5,77.0,2.0,92.5,1786.2,2467.1,3065.6,https://www.homegate.ch/rent/4003090179,3648.1,1499.0,,,38.3,1.2,22.3,30.8,45.6,,
4003069142,APARTMENT|FLAT,Schwalbenstrasse 10,St. Gallen,9000,47.427026314101,9.383911592471,1290.0,2.0,41.0,2.0,160.2,573.1,232.3,1479.0,https://www.homegate.ch/rent/4003069142,742.8,1134.0,,,18.5,2.0,7.2,2.9,9.3,,
4003057458,APARTMENT|FLAT,Zilstrasse 52,St. Gallen,9016,47.443388315103,9.408131592473,1740.0,4.5,94.0,2.0,125.6,906.7,2041.0,3491.4,https://www.homegate.ch/rent/4003057458,3643.4,1814.0,,,43.6,1.6,11.3,25.5,45.5,,
4003056241,APARTMENT|FLAT,Oberstrasse 106,St. Gallen,9000,47.415784314102,9.360831592471,1190.0,1.5,52.0,3.0,65.8,824.5,419.7,2455.1,https://www.homegate.ch/rent/4003056241,1657.2,1201.0,,,30.7,0.8,10.3,5.2,20.7,,
4003033153,APARTMENT|FLAT,St. Leonhardstrasse 51,St. Gallen,9000,47.421534318106,9.368811592479,780.0,1.0,23.0,4.0,54.3,174.5,347.3,1553.6,https://www.homegate.ch/rent/4003033153,754.3,1038.0,,,19.4,0.7,2.2,4.3,9.4,,
4003029199,APARTMENT|FLAT,Folchartstrasse 5,St. Gallen,9000,47.418964313109,9.377111592478,1800.0,3.5,66.0,2.0,280.2,885.4,731.9,2032.4,https://www.homegate.ch/rent/4003029199,876.2,1682.0,,,25.4,3.5,11.1,9.1,11.0,,
4003024701,APARTMENT|FLAT|ROOF_FLAT,Linsebühlstrasse 32,St. Gallen,9000,47.424424316104,9.381991592478,1600.0,3.0,81.0,5.0,144.7,392.7,266.2,1433.7,https://www.homegate.ch/rent/4003024701,453.9,1750.0,,,17.9,1.8,4.9,3.3,5.7,,
4003018435,APARTMENT|FLAT,Stockbergstrasse 4,St. Gallen,9014,47.407345313101,9.334101592471,1570.0,2.5,54.0,1.0,117.4,435.8,1239.2,4649.0,https://www.homegate.ch/rent/4003018435,4150.9,1480.0,,,58.1,1.5,5.4,15.5,51.9,,
4002960831,APARTMENT|FLAT|ATTIC_FLAT,Langgasse 108/110,St. Gallen,9008,47.441614314101,9.393941592479,2390.0,4.5,141.0,3.0,84.6,801.0,1466.4,2017.6,https://www.homegate.ch/rent/4002960831,2612.8,2167.0,,,25.2,1.1,10.0,18.3,32.7,,
4002770087,APARTMENT|FLAT,Feldbachstrasse 4,St. Gallen,9000,47.421199314101,9.355521592474,1500.0,2.5,65.0,4.0,297.0,176.9,177.6,2299.0,https://www.homegate.ch/rent/4002770087,1917.8,1543.0,,,28.7,3.7,2.2,2.2,24.0,,
4002747919,APARTMENT|FLAT,Langgasse 155,St. Gallen,9008,47.449394317105,9.397541592471,1510.0,3.5,77.0,0.0,92.5,1786.2,2467.1,3065.6,https://www.homegate.ch/rent/4002747919,3648.1,1496.0,,,38.3,1.2,22.3,30.8,45.6,,
4002747902,APARTMENT|FLAT,Iddastrasse 30,St. Gallen,9008,47.437385314102,9.387911592472,1280.0,2.5,54.0,4.0,106.4,291.9,1310.6,1330.5,https://www.homegate.ch/rent/4002747902,1956.8,1652.0,,,16.6,1.3,3.6,16.4,24.5,,
4002747881,APARTMENT|FLAT|DUPLEX,Zilstrasse 72a,St. Gallen,9016,47.442984313101,9.411411592479,2190.0,3.5,154.0,4.0,68.9,565.9,2048.2,3746.9,https://www.homegate.ch/rent/4002747881,3793.7,2282.0,,,46.8,0.9,7.1,25.6,47.4,,
4002747792,APARTMENT|FLAT,Falkensteinstrasse 10,St. Gallen,9000,47.429895313109,9.392201592474,1410.0,3.0,74.0,4.0,41.3,255.8,322.2,1844.3,https://www.homegate.ch/rent/4002747792,1508.5,1540.0,,,23.1,0.5,3.2,4.0,18.9,,
4002272212,APARTMENT|FLAT,Linsebühlstr. 35,St. Gallen,9000,47.424644313109,9.381991592476,1270.0,3.0,47.0,3.0,138.2,386.3,253.5,1427.2,https://www.homegate.ch/rent/4002272212,466.5,1295.0,,,17.8,1.7,4.8,3.2,5.8,,
4003129112,APARTMENT|FLAT,Seitzstrasse 3,St. Gallen,9000,47.418485310108,9.362001592478,940.0,1.5,35.0,4.0,786.9,860.7,349.8,2115.4,https://www.homegate.ch/rent/4003129112,1537.2,1182.0,,,26.4,9.8,10.8,4.4,19.2,,
4003125650,APARTMENT|FLAT,Engelgasse 8,St. Gallen,9000,47.426374314102,9.374841592472,1250.0,3.0,51.0,3.0,137.6,303.0,211.3,828.3,https://www.homegate.ch/rent/4003125650,477.8,1537.0,,,10.4,1.7,3.8,2.6,6.0,,
4003125639,APARTMENT|FLAT,Altmannweg 1,St. Gallen,9012,47.413756314102,9.364111592476,880.0,1.0,28.0,0.0,64.9,488.8,769.8,2611.3,https://www.homegate.ch/rent/4003125639,1686.7,891.0,,,32.6,0.8,6.1,9.6,21.1,,
4003123941,APARTMENT|FLAT,Neptunstr. 3,St. Gallen,9000,47.430564316104,9.393571592471,1675.0,4.0,89.0,4.0,148.5,143.0,236.7,1929.2,https://www.homegate.ch/rent/4003123941,1593.5,1874.0,,,24.1,1.9,1.8,3.0,19.9,,
4003122082,APARTMENT|FLAT,Kauffmannstrasse 8,St. Gallen,9008,47.442424313101,9.391991592472,2150.0,4.5,110.0,3.0,293.5,1035.5,1700.9,1993.2,https://www.homegate.ch/rent/4003122082,2660.9,1983.0,,,24.9,3.7,12.9,21.3,33.3,,
4003121900,APARTMENT|FLAT,Bernhardswiesstrasse 32,St. Gallen,9014,47.407235317105,9.339931592471,1830.0,3.5,88.0,1.0,209.0,856.6,1532.0,4339.4,https://www.homegate.ch/rent/4003121900,3573.0,1729.0,,,54.2,2.6,10.7,19.2,44.7,,
4003108700,APARTMENT|FLAT,Bernhardswiesstrasse 11,St. Gallen,9014,47.4083283,9.3419857,1750.0,3.5,80.0,2.0,62.6,1060.7,1736.2,4144.7,https://www.homegate.ch/rent/4003108700,3378.4,1562.0,,,51.8,0.8,13.3,21.7,42.2,,
4003090156,APARTMENT|FLAT,Wattstrasse 9,St. Gallen,9012,47.4106015932016,9.36885076548613,1840.0,3.5,102.0,0.0,200.7,278.3,1253.4,3162.2,https://www.homegate.ch/rent/4003090156,2192.9,1787.0,,,39.5,2.5,3.5,15.7,27.4,,
4003022597,APARTMENT|FLAT|ROOF_FLAT,Altmannweg 3,St. Gallen,9012,47.4137576135471,9.36423826069186,1210.0,1.0,33.0,4.0,87.7,511.5,792.6,2634.0,https://www.homegate.ch/rent/4003022597,1709.5,968.0,,,32.9,1.1,6.4,9.9,21.4,,
4003020895,APARTMENT|FLAT,Kreuzbleichestrasse 6,St. Gallen,9000,47.4201990362665,9.35658189734757,2580.0,5.5,83.0,4.0,316.1,308.0,222.5,2474.7,https://www.homegate.ch/rent/4003020895,2093.5,1608.0,,,30.9,4.0,3.8,2.8,26.2,,
4003017798,APARTMENT|FLAT,Steingrüeblistrasse 22,St.Gallen,9000,47.4261016845703,9.38879489898682,1290.0,1.0,38.0,3.0,195.2,871.5,350.7,1771.1,https://www.homegate.ch/rent/4003017798,1051.5,1158.0,,,22.1,2.4,10.9,4.4,13.1,,
4002959710,APARTMENT|FLAT,Falkensteinstrasse 86,St. Gallen,9000,47.4320551921843,9.4003022885418,1540.0,3.5,90.0,0.0,265.5,382.8,393.9,2540.5,https://www.homegate.ch/rent/4002959710,2173.5,1775.0,,,31.8,3.3,4.8,4.9,27.2,,
4002747882,APARTMENT|FLAT,Iddastrasse 30a,St. Gallen,9008,47.4375440201244,9.38807261897074,1825.0,4.5,93.0,2.0,69.5,322.2,1273.7,1370.9,https://www.homegate.ch/rent/4002747882,1997.1,1774.0,,,17.1,0.9,4.0,15.9,25.0,,
4003126440,APARTMENT|FLAT|DUPLEX,Zilweg 13,St. Gallen,9016,47.4424905,9.4091023,2450.0,4.5,130.0,4.0,329.6,1440.3,1880.2,3531.7,https://www.homegate.ch/rent/4003126440,3557.6,2407.0,,,44.1,4.1,18.0,23.5,44.5,,
4003125744,APARTMENT|FLAT,Steingrüeblistrasse 28,St.Gallen,9000,47.4261502973689,9.38984278504964,990.0,1.0,27.0,0.0,386.6,844.9,427.6,1848.0,https://www.homegate.ch/rent/4003125744,1147.6,899.0,,,23.1,4.8,10.6,5.3,14.3,,
4003123200,APARTMENT|ROOF_FLAT,Pelikanstrasse 15,St. Gallen,9008,47.4373883770558,9.39145855261989,1390.0,3.5,80.0,4.0,45.8,292.8,1040.3,1726.2,https://www.homegate.ch/rent/4003123200,2163.9,1566.0,,,21.6,0.6,3.7,13.0,27.0,,
4003121899,APARTMENT|FLAT,Hechtackerstrasse 12d,St. Gallen,9014,47.4074512101041,9.33935120817346,1924.0,3.5,88.0,4.0,82.6,730.1,1405.6,4442.5,https://www.homegate.ch/rent/4003121899,3676.1,1810.0,,,55.5,1.0,9.1,17.6,46.0,,
4003110446,APARTMENT|FLAT,Dierauerstrasse 9,St. Gallen,9000,47.4301513,9.3753004,3390.0,6.5,167.0,2.0,434.5,861.5,378.4,301.4,https://www.homegate.ch/rent/4003110446,977.9,2840.0,,,3.8,5.4,10.8,4.7,12.2,,
4003108716,APARTMENT|ROOF_FLAT,Haggenstrasse 3,St. Gallen,9014,47.4114362,9.3356287,1750.0,4.0,95.0,3.0,112.5,222.9,571.9,4161.6,https://www.homegate.ch/rent/4003108716,3813.7,1662.0,,,52.0,1.4,2.8,7.1,47.7,,
4003107936,APARTMENT|FLAT,Fürstenlandstrasse 179,St. Gallen,9014,47.4092836278373,9.33213001077537,1880.0,3.5,76.0,3.0,51.7,250.3,1028.2,4557.5,https://www.homegate.ch/rent/4003107936,4059.3,1785.0,,,57.0,0.6,3.1,12.9,50.7,,
4003096455,APARTMENT|FLAT,Teufener Strasse 62,St. Gallen,9000,47.4173909,9.3670317,1260.0,2.5,50.0,1.0,36.4,653.0,870.8,2061.3,https://www.homegate.ch/rent/4003096455,1136.7,1423.0,,,25.8,0.5,8.2,10.9,14.2,,
4003078919,APARTMENT|FLAT,Zürcher Strasse 284,St. Gallen,9014,47.4082689,9.3287025,1000.0,2.0,40.0,2.0,95.4,571.7,1240.2,4879.0,https://www.homegate.ch/rent/4003078919,4380.8,1152.0,,,61.0,1.2,7.1,15.5,54.8,,
4003077882,APARTMENT|FLAT,Bernhardswiesstrasse 19,St. Gallen,9014,47.407987,9.342038,1480.0,3.5,77.0,1.0,74.2,1060.9,1736.4,4156.3,https://www.homegate.ch/rent/4003077882,3389.9,1641.0,,,52.0,0.9,13.3,21.7,42.4,,
4003046741,APARTMENT|FLAT,Oberzilstrasse 15,St. Gallen,9016,47.441892510764,9.40692936371074,1590.0,3.5,80.0,2.0,381.5,803.6,1838.6,3315.1,https://www.homegate.ch/rent/4003046741,3467.1,1579.0,,,41.4,4.8,10.0,23.0,43.3,,
4003018748,APARTMENT|FLAT|DUPLEX,St. Georgenstr. 210a,St. Gallen,9011,47.4141491,9.3980594,2330.0,3.5,130.0,4.0,121.8,3726.8,2717.4,3727.0,https://www.homegate.ch/rent/4003018748,2585.4,2268.0,,,46.6,1.5,46.6,34.0,32.3,,
4003010943,APARTMENT|FLAT,Teufener Strasse 95a,St. Gallen,9000,47.4148924199935,9.36518663581553,2150.0,2.5,104.0,6.0,118.1,570.0,768.9,2462.3,https://www.homegate.ch/rent/4003010943,1537.7,2132.0,,,30.8,1.5,7.1,9.6,19.2,,
4002998607,APARTMENT|FLAT,Brauerstrasse 79a,St. Gallen,9016,47.4423145,9.4099313,1940.0,4.5,109.0,1.0,236.8,1412.8,1852.8,3504.2,https://www.homegate.ch/rent/4002998607,3530.1,2018.0,,,43.8,3.0,17.7,23.2,44.1,,
4002998605,APARTMENT|FLAT,Zilweg 13,St. Gallen,9016,47.4424905,9.4091023,2015.0,4.5,115.0,1.0,329.6,1440.3,1880.2,3531.7,https://www.homegate.ch/rent/4002998605,3557.6,1851.0,,,44.1,4.1,18.0,23.5,44.5,,
4002747898,APARTMENT|FLAT,Langgasse 165,St. Gallen,9008,47.4505976156987,9.39787192449599,1680.0,4.5,97.0,0.0,608.9,1748.9,2607.7,3206.2,https://www.homegate.ch/rent/4002747898,3788.7,1748.0,,,40.1,7.6,21.9,32.6,47.4,,
4002686060,APARTMENT|FLAT,Steingrüeblistrasse 30,St.Gallen,9000,47.4259833735584,9.38988249657962,1000.0,1.0,27.0,1.0,255.9,982.9,475.9,1896.3,https://www.homegate.ch/rent/4002686060,1112.3,1069.0,,,23.7,3.2,12.3,5.9,13.9,,
4003127005,APARTMENT|FLAT,Solitüdenstrasse 15,St. Gallen,9012,47.4119955807236,9.36305623704362,830.0,2.0,28.0,1.0,67.6,481.3,887.7,2800.1,https://www.homegate.ch/rent/4003127005,1875.6,1053.0,,,35.0,0.8,6.0,11.1,23.4,,
4003126839,APARTMENT|FLAT,Linsebühlstrasse 32,St. Gallen,9000,47.4244248,9.3819989,840.0,1.0,22.0,2.0,145.2,393.2,265.6,1434.2,https://www.homegate.ch/rent/4003126839,454.4,930.0,,,17.9,1.8,4.9,3.3,5.7,,
4003126031,APARTMENT|FLAT,Sonnenstrasse 17,St. Gallen,9000,47.4300850692661,9.38084177190552,990.0,1.5,24.0,2.0,138.5,706.4,523.4,1034.3,https://www.homegate.ch/rent/4003126031,956.1,882.0,,,12.9,1.7,8.8,6.5,12.0,,
4003121511,APARTMENT|FLAT,Langgasse 165,St. Gallen,9008,47.4505976156987,9.39787192449599,1695.0,4.5,95.0,0.0,608.9,1748.9,2607.7,3206.2,https://www.homegate.ch/rent/4003121511,3788.7,1682.0,,,40.1,7.6,21.9,32.6,47.4,,
4003109072,APARTMENT|FLAT,Wiesentalstrasse 20,St. Gallen,9000,47.4331342,9.397449,1320.0,3.0,62.0,5.0,168.0,291.2,369.6,2195.9,https://www.homegate.ch/rent/4003109072,2013.5,1512.0,,,27.4,2.1,3.6,4.6,25.2,,
4003108699,APARTMENT|FLAT,Brühlgasse 17,St. Gallen,9000,47.4256291,9.3780039,860.0,1.0,25.0,2.0,122.1,64.9,64.9,1039.0,https://www.homegate.ch/rent/4003108699,353.0,796.0,,,13.0,1.5,0.8,0.8,4.4,,
4003107846,APARTMENT|FLAT,Ahornstrasse 58,St. Gallen,9000,47.4126837290915,9.35021010564359,1520.0,2.5,58.0,2.0,115.9,570.7,1305.8,3338.5,https://www.homegate.ch/rent/4003107846,2572.2,1459.0,,,41.7,1.4,7.1,16.3,32.2,,
4003106763,APARTMENT|FLAT,Goethestrasse 20,St. Gallen,9008,47.4339867,9.381001,1120.0,2.0,45.0,4.0,417.7,602.5,866.9,626.2,https://www.homegate.ch/rent/4003106763,1448.8,1147.0,,,7.8,5.2,7.5,10.8,18.1,,
4003101968,APARTMENT|FLAT,Zilstrasse 76,St. Gallen,9016,47.4423961,9.4120031,1340.0,2.5,77.0,2.0,200.8,522.7,1944.0,3752.9,https://www.homegate.ch/rent/4003101968,3689.4,1507.0,,,46.9,2.5,6.5,24.3,46.1,,
4003101966,APARTMENT|FLAT,Schokoladenweg 13,St. Gallen,9011,47.41586919379,9.38517059442739,1620.0,3.5,101.0,0.0,145.4,1603.0,1449.0,2614.1,https://www.homegate.ch/rent/4003101966,1472.6,2011.0,,,32.7,1.8,20.0,18.1,18.4,,
4003101961,APARTMENT|FLAT,Heimstrasse 6,St. Gallen,9014,47.4145651,9.3381246,1270.0,2.5,72.0,2.0,353.1,344.7,316.7,3920.6,https://www.homegate.ch/rent/4003101961,3539.4,1607.0,,,49.0,4.4,4.3,4.0,44.2,,
4003101125,APARTMENT|FLAT,Ahornstrasse 58,St. Gallen,9000,47.4126837290915,9.35021010564359,1040.0,1.5,30.0,3.0,115.9,570.7,1305.8,3338.5,https://www.homegate.ch/rent/4003101125,2572.2,963.0,,,41.7,1.4,7.1,16.3,32.2,,
4003100364,APARTMENT|FLAT,Pelikanstrasse 15,St. Gallen,9008,47.4374180141361,9.39148980511364,1300.0,3.5,70.0,3.0,45.3,294.4,1040.7,1725.8,https://www.homegate.ch/rent/4003100364,2163.4,1551.0,,,21.6,0.6,3.7,13.0,27.0,,
4003095453,APARTMENT|FLAT,Dreilindenhang 10,St. Gallen,9000,47.4229469,9.3839911,1380.0,3.0,56.0,0.0,480.3,728.3,444.1,1769.3,https://www.homegate.ch/rent/4003095453,789.5,1343.0,,,22.1,6.0,9.1,5.6,9.9,,
4003092291,APARTMENT|FLAT,Speicherstrasse 34,St. Gallen,9000,47.4246859,9.386264,1320.0,2.5,44.0,2.0,95.6,721.2,225.2,1762.3,https://www.homegate.ch/rent/4003092291,782.4,1276.0,,,22.0,1.2,9.0,2.8,9.8,,
4003078920,APARTMENT|FLAT,Zürcher Strasse 284,St. Gallen,9014,47.4082689,9.3287025,950.0,2.0,40.0,4.0,95.4,571.7,1240.2,4879.0,https://www.homegate.ch/rent/4003078920,4380.8,1127.0,,,61.0,1.2,7.1,15.5,54.8,,
4003078177,APARTMENT|FLAT,Bedastrasse 5,St. Gallen,9000,47.428584,9.390384,1281.0,3.0,89.0,3.0,322.0,499.8,566.2,1808.9,https://www.homegate.ch/rent/4003078177,1252.3,1618.0,,,22.6,4.0,6.2,7.1,15.7,,
4003027013,APARTMENT|FLAT,Gartenstrasse 13,St. Gallen,9000,47.4214052334774,9.37310089489075,2070.0,3.5,82.0,4.0,88.7,166.3,156.2,1475.2,https://www.homegate.ch/rent/4003027013,455.5,1967.0,,,18.4,1.1,2.1,2.0,5.7,,
4003018700,APARTMENT|FLAT,Singenbergstrasse 12,St. Gallen,9000,47.4272125,9.3847522,1410.0,3.0,69.0,3.0,134.7,682.3,341.5,1453.4,https://www.homegate.ch/rent/4003018700,852.0,1661.0,,,18.2,1.7,8.5,4.3,10.6,,
4003017239,APARTMENT|FLAT,Teufener Strasse 95,St. Gallen,9000,47.4150536699851,9.36480836591908,1390.0,2.5,50.0,0.0,31.4,623.3,711.2,2375.6,https://www.homegate.ch/rent/4003017239,1451.0,1435.0,,,29.7,0.4,7.8,8.9,18.1,,
4002998550,APARTMENT|FLAT,Tschudistr. 36,St. Gallen,9000,47.41638409282351,9.36409381487005,1300.0,4.0,71.0,2.0,323.5,923.7,651.4,2344.7,https://www.homegate.ch/rent/4002998550,1467.6,1664.0,,,29.3,4.0,11.5,8.1,18.3,,
4002976818,APARTMENT|FLAT,Straubenzellstrasse 20a,St. Gallen,9014,47.4085971,9.3328358,1520.0,2.5,51.0,2.0,225.8,299.5,1094.7,4575.8,https://www.homegate.ch/rent/4002976818,4077.7,1367.0,,,57.2,2.8,3.7,13.7,51.0,,
4002939938,APARTMENT|FLAT,Steingrüeblistrasse 34,St.Gallen,9000,47.4260174936524,9.39040601122601,1950.0,4.0,76.0,0.0,241.2,890.2,472.8,1893.2,https://www.homegate.ch/rent/4002939938,1192.8,1841.0,,,23.7,3.0,11.1,5.9,14.9,,
4002932656,APARTMENT|FLAT,Langgasse 46,St. Gallen,9008,47.4370295,9.3883457,990.0,1.5,33.0,0.0,5.6,215.0,1276.5,1352.3,https://www.homegate.ch/rent/4002932656,1947.4,1157.0,,,16.9,0.1,2.7,16.0,24.3,,
4002932651,APARTMENT|FLAT,Industriestrasse 3a,St. Gallen,9015,47.404541015625,9.30224323272705,1590.0,3.0,92.0,4.0,98.4,526.5,643.9,7125.2,https://www.homegate.ch/rent/4002932651,6627.1,1579.0,,,89.1,1.2,6.6,8.0,82.8,,
4002893254,APARTMENT|FLAT,Fürstenlandstrasse 121,St. Gallen,9000,47.4140859,9.3495343,1050.0,1.0,27.0,1.0,52.7,385.8,1018.6,3166.0,https://www.homegate.ch/rent/4002893254,2667.8,1066.0,,,39.6,0.7,4.8,12.7,33.3,,
4002893000,APARTMENT|FLAT,Zwinglistrasse 6,St. Gallen,9000,47.4268016,9.3722486,2820.0,5.5,193.0,4.0,138.7,426.6,225.5,793.3,https://www.homegate.ch/rent/4002893000,694.0,2714.0,,,9.9,1.7,5.3,2.8,8.7,,
4002876853,APARTMENT|FLAT,Zilstrasse 8,St. Gallen,9016,47.4411629446167,9.40448447217629,1650.0,3.5,76.0,3.0,159.7,607.2,1582.0,3032.3,https://www.homegate.ch/rent/4002876853,3184.3,1573.0,,,37.9,2.0,7.6,19.8,39.8,,
4002847297,APARTMENT|FLAT,Oberzilstrasse 17,St. Gallen,9016,47.4419288635254,9.40666580200195,1675.0,4.5,93.0,1.0,429.4,838.7,1851.6,3302.0,https://www.homegate.ch/rent/4002847297,3454.0,1718.0,,,41.3,5.4,10.5,23.1,43.2,,
4002747893,APARTMENT|FLAT,Oberstrasse 205,St. Gallen,9000,47.412130561919,9.3519550516229,1290.0,2.5,53.0,3.0,153.2,548.6,1002.8,3316.3,https://www.homegate.ch/rent/4002747893,2552.7,1393.0,,,41.5,1.9,6.9,12.5,31.9,,
4002747860,APARTMENT|FLAT,Stahlstrasse 9,St. Gallen,9000,47.421393,9.3556012,1480.0,2.5,65.0,3.0,243.3,248.9,249.6,2296.1,https://www.homegate.ch/rent/4002747860,1914.9,1521.0,,,28.7,3.0,3.1,3.1,23.9,,
4002747809,APARTMENT|FLAT,Teufener Strasse 95a,St. Gallen,9000,47.4149807,9.3649742,1450.0,2.5,64.0,2.0,74.9,579.7,725.7,2419.1,https://www.homegate.ch/rent/4002747809,1494.5,1372.0,,,30.2,0.9,7.2,9.1,18.7,,
4002705158,APARTMENT|FLAT,Fürstenlandstrasse 121,St. Gallen,9000,47.4140859,9.3495343,1190.0,1.5,34.0,0.0,52.7,385.8,1018.6,3166.0,https://www.homegate.ch/rent/4002705158,2667.8,1072.0,,,39.6,0.7,4.8,12.7,33.3,,
4002705056,APARTMENT|FLAT,Fürstenlandstrasse 121,St. Gallen,9000,47.4140859,9.3495343,1590.0,2.5,56.0,0.0,52.7,385.8,1018.6,3166.0,https://www.homegate.ch/rent/4002705056,2667.8,1538.0,,,39.6,0.7,4.8,12.7,33.3,,
4002685514,APARTMENT|FLAT,Tellstrasse 26,St. Gallen,9000,47.4240647,9.3664354,1290.0,1.5,39.0,0.0,337.1,304.5,638.1,1306.0,https://www.homegate.ch/rent/4002685514,1041.7,1020.0,,,16.3,4.2,3.8,8.0,13.0,,
4002477926,APARTMENT|FLAT,Steingrüeblistrasse 34,St.Gallen,9000,47.4260174936524,9.39040601122601,1980.0,4.0,77.0,2.0,241.2,890.2,472.8,1893.2,https://www.homegate.ch/rent/4002477926,1192.8,1899.0,,,23.7,3.0,11.1,5.9,14.9,,
4003126150,APARTMENT|FLAT,Brauerstrasse 21,St. Gallen,9000,47.435570612107,9.4012979040029,1130.0,1.0,36.0,1.0,579.3,628.3,839.5,2457.5,https://www.homegate.ch/rent/4003126150,2452.5,1154.0,,,30.7,7.2,7.9,10.5,30.7,,
4003124620,APARTMENT|FLAT,Linsebühlstrasse 100,St. Gallen,9000,47.4259536,9.3857801,840.0,1.5,25.0,40.0,215.9,742.8,102.9,1679.8,https://www.homegate.ch/rent/4003124620,822.9,935.0,,,21.0,2.7,9.3,1.3,10.3,,
4003123214,APARTMENT|STUDIO,Heinestrasse 1,St. Gallen,9000,47.4229235986159,9.37248482698963,650.0,1.0,25.0,2.0,103.6,93.8,156.9,1253.2,https://www.homegate.ch/rent/4003123214,431.7,895.0,,,15.7,1.3,1.2,2.0,5.4,,
4003110445,APARTMENT|FLAT,Dufourstrasse 59,St. Gallen,9000,47.4299361,9.3747224,770.0,1.0,26.0,3.0,403.1,765.2,282.1,339.1,https://www.homegate.ch/rent/4003110445,881.5,901.0,,,4.2,5.0,9.6,3.5,11.0,,
4003106469,APARTMENT|FLAT,Heinestr. 14,St. Gallen,9008,47.4335724,9.3826644,960.0,2.0,30.0,-1.0,274.1,411.1,1034.4,764.3,https://www.homegate.ch/rent/4003106469,1445.6,1040.0,,,9.6,3.4,5.1,12.9,18.1,,
4003089716,APARTMENT|FLAT,Bedastrasse 15,St. Gallen,9000,47.4288239946277,9.39115563865075,1480.0,3.5,73.0,4.0,261.9,435.9,502.3,1872.9,https://www.homegate.ch/rent/4003089716,1316.2,1637.0,,,23.4,3.3,5.4,6.3,16.5,,
4003076797,APARTMENT|DUPLEX,Linsebühlstrasse 56,St. Gallen,9000,47.4247198,9.3830032,1870.0,4.0,100.0,5.0,218.6,466.7,173.2,1507.6,https://www.homegate.ch/rent/4003076797,546.8,2014.0,,,18.8,2.7,5.8,2.2,6.8,,
4003071446,APARTMENT|FLAT,Schorenstrasse 1,St. Gallen,9000,47.4228088085676,9.37249503346721,2590.0,5.0,120.0,0.0,94.9,113.8,127.0,1294.4,https://www.homegate.ch/rent/4003071446,414.9,2506.0,,,16.2,1.2,1.4,1.6,5.2,,
4003055130,APARTMENT|FLAT,Burgstrasse 59,St. Gallen,9000,47.4174919128418,9.35899543762207,1450.0,2.5,51.0,1.0,119.9,540.8,29.9,2303.2,https://www.homegate.ch/rent/4003055130,1805.0,1269.0,,,28.8,1.5,6.8,0.4,22.6,,
4003017233,APARTMENT|FLAT,Tempelackerstrasse 20,St. Gallen,9000,47.4285842,9.3898405,653.0,1.5,32.0,3.0,222.3,545.9,523.7,1697.2,https://www.homegate.ch/rent/4003017233,1228.9,725.0,,,21.2,2.8,6.8,6.5,15.4,,
4002997404,APARTMENT|ROOF_FLAT,Lehnstrasse 101,St. Gallen,9014,47.4058801,9.3247608,2430.0,5.5,133.0,3.0,192.2,987.4,1952.5,5294.7,https://www.homegate.ch/rent/4002997404,4796.5,2553.0,,,66.2,2.4,12.3,24.4,60.0,,
4002991314,APARTMENT|FLAT,Burgstrasse 91b,St. Gallen,9000,47.415656253385,9.3555175964676,1080.0,1.5,52.0,-1.0,275.8,183.1,410.4,2724.0,https://www.homegate.ch/rent/4002991314,2225.8,1221.0,,,34.0,3.4,2.3,5.1,27.8,,
4002945439,APARTMENT|FLAT,Tempelackerstrasse 20,St. Gallen,9000,47.4285842,9.3898405,661.0,1.5,32.0,4.0,222.3,545.9,523.7,1697.2,https://www.homegate.ch/rent/4002945439,1228.9,684.0,,,21.2,2.8,6.8,6.5,15.4,,
4002878681,APARTMENT|FLAT,Langgasse 153,St. Gallen,9008,47.4491498408908,9.39752546257667,1700.0,4.5,98.0,0.0,117.0,1810.7,2464.4,3062.9,https://www.homegate.ch/rent/4002878681,3645.5,1800.0,,,38.3,1.5,22.6,30.8,45.6,,
4002878043,APARTMENT|FLAT,Iddastrasse 30a,St. Gallen,9008,47.4375440201244,9.38807261897074,1190.0,2.5,54.0,4.0,69.5,322.2,1273.7,1370.9,https://www.homegate.ch/rent/4002878043,1997.1,1700.0,,,17.1,0.9,4.0,15.9,25.0,,
4002833366,APARTMENT|FLAT,Feldbachstrasse 4,St. Gallen,9000,47.4211963,9.3555278,1814.0,3.5,84.0,3.0,296.9,177.0,177.7,2298.8,https://www.homegate.ch/rent/4002833366,1917.6,1748.0,,,28.7,3.7,2.2,2.2,24.0,,
4002747897,APARTMENT|FLAT,Zilstrasse 70,St. Gallen,9016,47.443378,9.4108725,1900.0,2.5,73.0,-1.0,17.8,590.1,2033.3,3695.7,https://www.homegate.ch/rent/4002747897,3710.6,1503.0,,,46.2,0.2,7.4,25.4,46.4,,
4003125811,APARTMENT|FLAT,Rorschacherstrasse 50a,St. Gallen,9000,47.415495,9.3559045,1305.0,2.5,48.0,3.0,291.4,246.5,426.0,2681.0,https://www.homegate.ch/rent/4003125811,2139.5,1435.0,,,33.5,3.6,3.1,5.3,26.7,,
4003125353,APARTMENT|FLAT,Rappensteinstrasse 6,St. Gallen,9000,47.4304304,9.3978922,1952.0,3.5,67.0,1.0,192.7,349.1,353.9,2469.3,https://www.homegate.ch/rent/4003125353,2090.7,1535.0,,,30.9,2.4,4.4,4.4,26.1,,
4003122866,APARTMENT|FLAT,Krontalstrasse 4,St. Gallen,9000,47.4319359,9.3985949,2090.0,4.5,118.0,4.0,167.4,248.5,302.1,2410.1,https://www.homegate.ch/rent/4003122866,2074.4,2472.0,,,30.1,2.1,3.1,3.8,25.9,,
4003111513,APARTMENT|FLAT,Fürstenlandstrasse 135,St. Gallen,9014,47.4107739,9.3387158,1490.0,2.5,65.0,1.0,167.6,305.9,668.8,4055.9,https://www.homegate.ch/rent/4003111513,3557.7,1511.0,,,50.7,2.1,3.8,8.4,44.5,,
4003102814,APARTMENT|FLAT,Moosstrasse 35,St. Gallen,9014,47.4110831752064,9.34163322924897,1350.0,3.5,90.0,2.0,95.5,367.9,587.7,3850.1,https://www.homegate.ch/rent/4003102814,3351.9,1692.0,,,48.1,1.2,4.6,7.3,41.9,,
4003089727,APARTMENT|FLAT,Zürcher Strasse 204c,St. Gallen,9014,47.4124929,9.3350155,970.0,1.0,31.0,2.0,150.8,214.3,588.2,4192.1,https://www.homegate.ch/rent/4003089727,3810.9,916.0,,,52.4,1.9,2.7,7.4,47.6,,
4003067111,APARTMENT|FLAT,Demutstrasse 116,St. Gallen,9012,47.412611582609,9.36734127169513,1750.0,3.5,60.0,4.0,138.1,259.9,1082.3,2991.2,https://www.homegate.ch/rent/4003067111,1996.7,1665.0,,,37.4,1.7,3.2,13.5,25.0,,
4003064979,APARTMENT|FLAT,Espenmoosstrasse 6,St. Gallen,9008,47.44037,9.3948,1533.0,3.5,85.0,1.0,185.2,737.8,1320.4,2097.0,https://www.homegate.ch/rent/4003064979,2615.7,1630.0,,,26.2,2.3,9.2,16.5,32.7,,
4003034814,APARTMENT|FLAT,Zürcher Strasse 30,St. Gallen,9000,47.4197147418999,9.35473071639835,915.0,1.5,31.0,2.0,54.1,111.6,84.2,2385.2,https://www.homegate.ch/rent/4003034814,2004.1,904.0,,,29.8,0.7,1.4,1.1,25.1,,
4002991729,APARTMENT|FLAT,Bernhardswiesstrasse 19,St. Gallen,9014,47.407987,9.342038,1550.0,3.5,77.0,0.0,74.2,1060.9,1736.4,4156.3,https://www.homegate.ch/rent/4002991729,3389.9,1643.0,,,52.0,0.9,13.3,21.7,42.4,,
4002978213,APARTMENT|ATTIC_FLAT,Langgasse 77,St. Gallen,9008,47.4391647,9.3904991,1650.0,4.0,115.0,4.0,93.1,540.5,1292.5,1630.4,https://www.homegate.ch/rent/4002978213,2225.6,1925.0,,,20.4,1.2,6.8,16.2,27.8,,
4002961913,APARTMENT|FLAT,Treuackerstrasse 21,St. Gallen,9000,47.4155988732267,9.36402054725939,695.0,1.0,20.0,0.0,197.8,748.4,616.5,2372.8,https://www.homegate.ch/rent/4002961913,1448.3,938.0,,,29.7,2.5,9.4,7.7,18.1,,
4002921768,APARTMENT|FLAT,Ahornstrasse 43,St. Gallen,9008,47.41299,9.34869,1265.0,2.5,64.0,3.0,180.7,624.4,1029.2,3404.6,https://www.homegate.ch/rent/4002921768,2906.4,1468.0,,,42.6,2.3,7.8,12.9,36.3,,
4002663139,APARTMENT|ROOF_FLAT,Stationsstrasse 16,St. Gallen,9014,47.4078662,9.3302255,1450.0,3.5,70.0,3.0,235.2,488.8,1196.0,4796.1,https://www.homegate.ch/rent/4002663139,4297.9,1440.0,,,60.0,2.9,6.1,15.0,53.7,,
4002309543,APARTMENT|FLAT,Sonnenstrasse 9,St. Gallen,9000,47.4297303,9.3800183,2390.0,3.5,80.0,0.0,51.3,632.2,496.2,1000.3,https://www.homegate.ch/rent/4002309543,881.9,2052.0,,,12.5,0.6,7.9,6.2,11.0,,
4003127703,APARTMENT|FLAT,Wildeggstrasse 44,St. Gallen,9000,47.4244576,9.3864677,1950.0,5.0,100.0,4.0,93.1,762.8,249.8,1803.9,https://www.homegate.ch/rent/4003127703,824.0,2344.0,,,22.5,1.2,9.5,3.1,10.3,,
4003123094,APARTMENT|FLAT,Rehetobelstrasse 71,St. Gallen,9016,47.4333863,9.4117481,1300.0,4.0,82.0,3.0,90.9,1089.7,1351.2,3360.5,https://www.homegate.ch/rent/4003123094,3009.8,1658.0,,,42.0,1.1,13.6,16.9,37.6,,
4003122255,APARTMENT|FLAT,Langgasse 50,St. Gallen,9008,47.4374845,9.3887975,1450.0,2.5,39.0,3.0,48.0,275.6,1215.9,1412.7,https://www.homegate.ch/rent/4003122255,2007.8,1371.0,,,17.7,0.6,3.4,15.2,25.1,,
4003122227,APARTMENT|FLAT,Langgasse 50,St. Gallen,9008,47.4374845,9.3887975,2275.0,3.5,69.0,3.0,48.0,275.6,1215.9,1412.7,https://www.homegate.ch/rent/4003122227,2007.8,2339.0,,,17.7,0.6,3.4,15.2,25.1,,
4003112241,APARTMENT|FLAT,Fürstenlandstrasse 135,St. Gallen,9014,47.4107739,9.3387158,1620.0,2.5,77.0,3.0,167.6,305.9,668.8,4055.9,https://www.homegate.ch/rent/4003112241,3557.7,1500.0,,,50.7,2.1,3.8,8.4,44.5,,
4003102635,APARTMENT,Teufener Strasse 112,St. Gallen,9000,47.4146992,9.3637237,1810.0,2.5,59.0,3.0,91.8,586.9,662.9,2453.5,https://www.homegate.ch/rent/4003102635,1528.9,1472.0,,,30.7,1.1,7.3,8.3,19.1,,
4003100287,APARTMENT|FLAT,Brauerstr. 47,St. Gallen,9016,47.4371474,9.4037595,1660.0,4.5,93.0,1.0,173.9,86.7,993.8,2790.5,https://www.homegate.ch/rent/4003100287,2714.3,1727.0,,,34.9,2.2,1.1,12.4,33.9,,
4003056086,APARTMENT|FLAT,Gerbestrasse 7,St. Gallen,9000,47.4199102,9.3554184,1130.0,2.0,43.0,3.0,61.0,175.0,87.7,2339.9,https://www.homegate.ch/rent/4003056086,1958.7,1186.0,,,29.2,0.8,2.2,1.1,24.5,,
4003012267,APARTMENT|FLAT,Ahornstrasse 43,St. Gallen,9000,47.4228088085676,9.37249503346721,1395.0,3.0,61.0,0.0,94.9,113.8,127.0,1294.4,https://www.homegate.ch/rent/4003012267,414.9,1581.0,,,16.2,1.2,1.4,1.6,5.2,,
4003010602,APARTMENT|FLAT,Domänenstrasse 2,St. Gallen,9008,47.4406004,9.3942268,1270.0,3.0,72.0,0.0,189.7,755.3,1337.9,2096.3,https://www.homegate.ch/rent/4003010602,2633.2,1438.0,,,26.2,2.4,9.4,16.7,32.9,,
4002993728,APARTMENT|FLAT,Langgasse 50,St. Gallen,9008,47.4374845,9.3887975,2450.0,3.5,68.0,3.0,48.0,275.6,1215.9,1412.7,https://www.homegate.ch/rent/4002993728,2007.8,2192.0,,,17.7,0.6,3.4,15.2,25.1,,
4002977457,APARTMENT|FLAT,Lindenstrasse 155,St. Gallen,9016,47.4380454415402,9.4035892904114,2090.0,4.5,95.0,4.0,79.6,154.9,1141.8,2720.7,https://www.homegate.ch/rent/4002977457,2746.5,1752.0,,,34.0,1.0,1.9,14.3,34.3,,
4002974745,APARTMENT|FLAT,Gatterstrasse 1A,St. Gallen,9010,47.4316269,9.3729145,2950.0,4.5,96.0,1.0,83.2,1009.7,540.4,309.9,https://www.homegate.ch/rent/4002974745,1139.9,2227.0,,,3.9,1.0,12.6,6.8,14.2,,
4002923931,APARTMENT|FLAT,Ullmannstrasse 13,St. Gallen,9014,47.4132873732775,9.33330947557779,2000.0,3.5,98.0,1.0,310.5,485.7,840.8,4444.7,https://www.homegate.ch/rent/4002923931,4063.5,1762.0,,,55.6,3.9,6.1,10.5,50.8,,
4003127499,APARTMENT|FLAT,Iddastrasse 41,St. Gallen,9008,47.4391630064446,9.38869000922585,1460.0,3.0,72.0,0.0,282.5,563.9,1454.7,1595.6,https://www.homegate.ch/rent/4003127499,2221.8,1484.0,,,19.9,3.5,7.0,18.2,27.8,,
4003126524,APARTMENT|FLAT,Langgasse 74,St. Gallen,9008,47.4391187419651,9.39102674051732,1090.0,1.5,30.0,1.0,84.6,530.9,1302.5,1663.9,https://www.homegate.ch/rent/4003126524,2259.1,1095.0,,,20.8,1.1,6.6,16.3,28.2,,
4003124018,APARTMENT|FLAT,Löwengasse 3,St. Gallen,9000,47.4228088085676,9.37249503346721,1480.0,2.5,40.0,3.0,94.9,113.8,127.0,1294.4,https://www.homegate.ch/rent/4003124018,414.9,1160.0,,,16.2,1.2,1.4,1.6,5.2,,
4003122288,APARTMENT|FLAT|TERRACE_FLAT,Splügenstrasse 3,St. Gallen,9008,47.4345992,9.3858046,1270.0,2.5,39.0,2.0,121.1,137.8,1224.0,1058.0,https://www.homegate.ch/rent/4003122288,1628.1,1270.0,,,13.2,1.5,1.7,15.3,20.4,,
4003121996,APARTMENT|FLAT,Stationsstrasse 25,St. Gallen,9014,47.40758,9.33052,1370.0,2.5,59.0,0.0,208.4,551.5,1258.7,4858.8,https://www.homegate.ch/rent/4003121996,4360.6,1366.0,,,60.7,2.6,6.9,15.7,54.5,,
4003102153,APARTMENT|FLAT,Zilstrasse 10,St. Gallen,9016,47.4411323594983,9.40496508441417,1550.0,3.5,76.0,0.0,197.5,645.0,1619.8,3070.2,https://www.homegate.ch/rent/4003102153,3222.2,1559.0,,,38.4,2.5,8.1,20.2,40.3,,
4003100285,APARTMENT|FLAT,Achslenstr. 3,St. Gallen,9016,47.4334907531738,9.41362762451172,1480.0,3.5,78.0,4.0,107.7,1260.4,1527.3,3536.6,https://www.homegate.ch/rent/4003100285,3177.6,1584.0,,,44.2,1.3,15.8,19.1,39.7,,
4003094690,APARTMENT|FLAT,Rorschacherstrasse 173 a,St. Gallen,9000,47.43267,9.3978,1450.0,4.5,86.0,3.0,112.9,197.2,275.7,2301.6,https://www.homegate.ch/rent/4003094690,1992.5,1735.0,,,28.8,1.4,2.5,3.4,24.9,,
4003086416,APARTMENT|FLAT,Schibistrasse 10,St. Gallen,9000,47.4172263131102,9.34836199774893,1290.0,3.0,65.0,0.0,215.8,579.3,739.5,3067.5,https://www.homegate.ch/rent/4003086416,2686.3,1450.0,,,38.3,2.7,7.2,9.2,33.6,,
4003085890,APARTMENT|FLAT,Klusstrasse 20,St. Gallen,9000,47.4184843,9.3770843,1655.0,3.5,74.0,1.0,217.6,1011.0,857.4,2068.3,https://www.homegate.ch/rent/4003085890,926.7,1718.0,,,25.9,2.7,12.6,10.7,11.6,,
4003066671,APARTMENT|FLAT,Sonnenhaldenstrasse 8,St. Gallen,9008,47.4416358116384,9.39210594287029,1450.0,3.0,57.0,2.0,92.9,938.8,1604.1,1892.3,https://www.homegate.ch/rent/4003066671,2547.3,1512.0,,,23.7,1.2,11.7,20.1,31.8,,
4003065699,APARTMENT|FLAT,Altmannstrasse 18,St. Gallen,9012,47.413003,9.3642577,1594.0,2.0,56.0,4.0,100.6,375.5,756.0,2664.9,https://www.homegate.ch/rent/4003065699,1740.3,1360.0,,,33.3,1.3,4.7,9.4,21.8,,
4003065671,APARTMENT|FLAT,Altmannstrasse 18,St. Gallen,9012,47.413003,9.3642577,1120.0,2.0,36.0,1.0,100.6,375.5,756.0,2664.9,https://www.homegate.ch/rent/4003065671,1740.3,1186.0,,,33.3,1.3,4.7,9.4,21.8,,
4003052696,APARTMENT|FLAT,Bedastrasse 11,St. Gallen,9000,47.4287137,9.390874,1490.0,3.5,68.0,0.0,286.4,460.4,526.8,1848.4,https://www.homegate.ch/rent/4003052696,1291.7,1565.0,,,23.1,3.6,5.8,6.6,16.1,,
4003028866,APARTMENT|FLAT,Linsebühlstrasse 94,St. Gallen,9000,47.4255532,9.3849832,1340.0,2.5,59.0,4.0,278.2,641.9,2.0,1612.2,https://www.homegate.ch/rent/4003028866,722.0,1487.0,,,20.2,3.5,8.0,0.0,9.0,,
4002951875,APARTMENT|ROOF_FLAT|DUPLEX,Brühlgasse 40,St. Gallen,9000,47.424968,9.3785851,1680.0,3.5,117.0,4.0,89.8,70.9,70.9,1136.8,https://www.homegate.ch/rent/4002951875,311.3,2057.0,,,14.2,1.1,0.9,0.9,3.9,,
4002919791,APARTMENT|FLAT,Mühlenstrasse 3,St. Gallen,9000,47.42209,9.37808,1890.0,3.5,76.0,1.0,92.8,480.4,373.8,1491.5,https://www.homegate.ch/rent/4002919791,350.0,1913.0,,,18.6,1.2,6.0,4.7,4.4,,
4002151290,APARTMENT|FLAT|ATTIC_FLAT,Einstein Congress| Wassergasse 1 - 7,St. Gallen,9000,47.4216788,9.3750108,2600.0,2.5,66.0,5.0,138.1,329.8,128.9,1371.4,https://www.homegate.ch/rent/4002151290,292.0,1696.0,,,17.1,1.7,4.1,1.6,3.6,,
4003128346,APARTMENT|ROOF_FLAT,Ruhbergstrasse 37,St. Gallen,9000,47.4245626,9.3748965,1500.0,4.5,90.0,3.0,126.2,171.1,253.7,1068.4,https://www.homegate.ch/rent/4003128346,312.6,1891.0,,,13.4,1.6,2.1,3.2,3.9,,
4003126525,APARTMENT|FLAT,Langgasse 74,St. Gallen,9008,47.4391187419651,9.39102674051732,1120.0,1.5,30.0,2.0,84.6,530.9,1302.5,1663.9,https://www.homegate.ch/rent/4003126525,2259.1,1083.0,,,20.8,1.1,6.6,16.3,28.2,,
4003109053,APARTMENT|FLAT,Im Grund 10a,St. Gallen,9012,47.4105850795974,9.36538086283031,1450.0,2.5,50.0,0.0,138.2,184.2,1156.5,3065.3,https://www.homegate.ch/rent/4003109053,2108.6,1338.0,,,38.3,1.7,2.3,14.5,26.4,,
4003100319,APARTMENT|FLAT,Sankt Jakob-Strasse 48,St. Gallen,9000,47.4305023,9.3803743,1420.0,2.5,53.0,2.0,77.8,750.9,558.2,902.7,https://www.homegate.ch/rent/4003100319,976.1,1423.0,,,11.3,1.0,9.4,7.0,12.2,,
4003088899,APARTMENT|FLAT,Ahornstrasse 23,St. Gallen,9000,47.4141384805286,9.34656433287416,2150.0,4.5,96.0,2.0,178.9,687.9,788.0,3418.5,https://www.homegate.ch/rent/4003088899,2920.3,1818.0,,,42.7,2.2,8.6,9.8,36.5,,
4003076279,APARTMENT|FLAT,Greifenstrasse 17,St. Gallen,9000,47.4234369,9.3655757,2934.0,5.5,151.0,2.0,236.5,399.2,742.4,1403.1,https://www.homegate.ch/rent/4003076279,1141.9,2695.0,,,17.5,3.0,5.0,9.3,14.3,,
4003076060,APARTMENT|FLAT,Rorschacher Strasse 244,St. Gallen,9016,47.4366135,9.4051028,1490.0,3.5,67.0,4.0,66.9,111.4,965.3,2937.0,https://www.homegate.ch/rent/4003076060,2710.7,1717.0,,,36.7,0.8,1.4,12.1,33.9,,
4003066426,APARTMENT|FLAT,Stationsstrasse 16,St. Gallen,9014,47.4078662,9.3302255,910.0,1.5,25.0,0.0,235.2,488.8,1196.0,4796.1,https://www.homegate.ch/rent/4003066426,4297.9,946.0,,,60.0,2.9,6.1,15.0,53.7,,
4003064842,APARTMENT|FLAT,Lukasstrasse 2,St. Gallen,9008,47.4394053,9.395137,1560.0,3.0,59.0,4.0,38.6,621.1,1191.3,2096.8,https://www.homegate.ch/rent/4003064842,2499.1,1407.0,,,26.2,0.5,7.8,14.9,31.2,,
4003055147,APARTMENT|FLAT,Teufener Strasse 129,St. Gallen,9012,47.41315,9.36404,890.0,1.5,40.0,4.0,64.3,398.4,733.1,2642.0,https://www.homegate.ch/rent/4003055147,1717.4,1067.0,,,33.0,0.8,5.0,9.2,21.5,,
4003028865,APARTMENT|FLAT,Burgstrasse 80,St. Gallen,9000,47.4170648,9.3564318,830.0,1.0,31.0,-1.0,128.0,346.5,174.1,2507.1,https://www.homegate.ch/rent/4003028865,2009.0,967.0,,,31.3,1.6,4.3,2.2,25.1,,
4003010599,APARTMENT|FLAT,Bedastrasse 11,St. Gallen,9000,47.4287137,9.390874,890.0,1.5,22.0,2.0,286.4,460.4,526.8,1848.4,https://www.homegate.ch/rent/4003010599,1291.7,871.0,,,23.1,3.6,5.8,6.6,16.1,,
4003002180,APARTMENT|FLAT,Rorschacher Strasse 244,St. Gallen,9000,47.4366153370352,9.40508944420696,1140.0,1.5,27.0,5.0,67.5,112.0,964.6,2936.4,https://www.homegate.ch/rent/4003002180,2710.1,917.0,,,36.7,0.8,1.4,12.1,33.9,,
4002993966,APARTMENT|FLAT,Herisauer Strasse 88,St. Gallen,9015,47.4016073,9.3009183,850.0,2.0,32.0,3.0,122.0,852.6,970.0,7443.6,https://www.homegate.ch/rent/4002993966,6945.4,954.0,,,93.0,1.5,10.7,12.1,86.8,,
4002838506,APARTMENT|FLAT,Wiesentalstrasse 26,St. Gallen,9000,47.4333559,9.3980884,1245.0,2.5,49.0,1.0,114.6,344.6,423.1,2265.6,https://www.homegate.ch/rent/4002838506,2066.9,1468.0,,,28.3,1.4,4.3,5.3,25.8,,
4003122491,APARTMENT|FLAT,Obere Berneggstrasse 79,St. Gallen,9012,47.4129023595612,9.36701296280686,1260.0,2.0,46.0,1.0,229.6,345.7,1021.3,2792.6,https://www.homegate.ch/rent/4003122491,1770.3,1332.0,,,34.9,2.9,4.3,12.8,22.1,,
4003065160,APARTMENT|FLAT,Teufenerstr. 129,St. Gallen,9000,47.4131555,9.364039,1160.0,3.5,70.0,0.0,63.7,399.0,732.5,2641.3,https://www.homegate.ch/rent/4003065160,1716.8,1714.0,,,33.0,0.8,5.0,9.2,21.5,,
4003045138,APARTMENT|FLAT,Obere Berneggstrasse 79,St. Gallen,9012,47.4129023595612,9.36701296280686,1707.0,3.5,71.0,0.0,229.6,345.7,1021.3,2792.6,https://www.homegate.ch/rent/4003045138,1770.3,1508.0,,,34.9,2.9,4.3,12.8,22.1,,
4002965965,APARTMENT|FLAT,Obere Berneggstrasse 79,St. Gallen,9012,47.4129023595612,9.36701296280686,1320.0,2.0,46.0,2.0,229.6,345.7,1021.3,2792.6,https://www.homegate.ch/rent/4002965965,1770.3,1304.0,,,34.9,2.9,4.3,12.8,22.1,,
4002423455,APARTMENT|ROOF_FLAT,Linsebühlstrasse 18,St. Gallen,9000,47.4243014,9.38101,1590.0,2.5,78.0,4.0,101.9,315.8,315.8,1360.7,https://www.homegate.ch/rent/4002423455,377.0,1922.0,,,17.0,1.3,3.9,3.9,4.7,,
4003111361,APARTMENT|FLAT,Langgasse 74,St. Gallen,9008,47.4391131,9.3909374,1010.0,1.5,30.0,1.0,89.3,526.2,1297.8,1659.2,https://www.homegate.ch/rent/4003111361,2254.4,1084.0,,,20.7,1.1,6.6,16.2,28.2,,
4003102605,APARTMENT|FLAT,Otmarstrasse 21,St. Gallen,9000,47.4168557,9.3568926,1237.0,2.5,35.0,1.0,48.0,343.5,183.0,2496.2,https://www.homegate.ch/rent/4003102605,1998.0,1404.0,,,31.2,0.6,4.3,2.3,25.0,,
4003100142,APARTMENT|FLAT,Steingrüblistrasse 40,St. Gallen,9000,47.4266095,9.3900995,1790.0,4.5,90.0,1.0,315.1,853.6,436.2,1856.6,https://www.homegate.ch/rent/4003100142,1156.2,1931.0,,,23.2,3.9,10.7,5.5,14.5,,
4003076338,APARTMENT|FLAT,Oberstrasse 205,St. Gallen,9000,47.4245626,9.3748965,850.0,1.0,29.0,1.0,126.2,171.1,253.7,1068.4,https://www.homegate.ch/rent/4003076338,312.6,901.0,,,13.4,1.6,2.1,3.2,3.9,,
4003064022,APARTMENT|ROOF_FLAT,Oberstrasse 177,St. Gallen,9000,47.4133009,9.353595,980.0,1.5,41.0,5.0,64.1,284.9,739.1,3052.7,https://www.homegate.ch/rent/4003064022,2286.4,1161.0,,,38.2,0.8,3.6,9.2,28.6,,
4003060090,APARTMENT|FLAT,Stahlstrasse 1,St. Gallen,9000,47.420816983033,9.35678562413233,1610.0,4.5,113.0,4.0,29.3,308.9,221.6,2187.9,https://www.homegate.ch/rent/4003060090,1806.7,2248.0,,,27.3,0.4,3.9,2.8,22.6,,
4003045872,APARTMENT|FLAT,Felsenstrasse 84,St. Gallen,9000,47.4193539352974,9.37129096497841,1110.0,1.5,30.0,-1.0,239.1,333.4,396.0,1771.9,https://www.homegate.ch/rent/4003045872,749.5,917.0,,,22.1,3.0,4.2,5.0,9.4,,
4002956376,APARTMENT|FLAT,Lettenstrasse 2,St. Gallen,9008,47.440728,9.39539,1250.0,2.5,75.0,0.0,196.8,790.8,1361.0,2159.4,https://www.homegate.ch/rent/4002956376,2668.7,1493.0,,,27.0,2.5,9.9,17.0,33.4,,
4003123714,APARTMENT|FLAT,Kräzernstrasse 108C,St. Gallen,9015,47.4063645,9.3109901,1150.0,2.0,48.0,1.0,267.4,631.6,548.4,6509.8,https://www.homegate.ch/rent/4003123714,6011.6,1153.0,,,81.4,3.3,7.9,6.9,75.1,,
4003115123,APARTMENT|FLAT,Langgasse 155,St. Gallen,9008,47.449419,9.3975375,1300.0,2.5,48.0,0.0,87.0,1780.7,2481.6,3080.1,https://www.homegate.ch/rent/4003115123,3662.7,1304.0,,,38.5,1.1,22.3,31.0,45.8,,
4003103919,APARTMENT|FLAT,Leimatstrasse 21,St. Gallen,9000,47.4322383,9.3804726,790.0,1.0,24.0,0.0,187.4,629.3,805.2,662.3,https://www.homegate.ch/rent/4003103919,1216.5,983.0,,,8.3,2.3,7.9,10.1,15.2,,
4003072504,APARTMENT|FLAT,Hinterlauben 13,St. Gallen,9000,47.4245396,9.3751625,1490.0,2.5,54.0,1.0,127.1,175.5,227.4,1069.1,https://www.homegate.ch/rent/4003072504,306.0,1909.0,,,13.4,1.6,2.2,2.8,3.8,,
4003061376,APARTMENT|FLAT,Kirchgasse 12,St. Gallen,9000,47.4274059,9.3755206,1800.0,4.5,80.0,1.0,186.0,437.0,144.2,761.2,https://www.homegate.ch/rent/4003061376,553.4,2129.0,,,9.5,2.3,5.5,1.8,6.9,,
4003058405,APARTMENT|FLAT,Unterer Graben 9,St. Gallen,9000,47.426553672464,9.37404034165644,1090.0,1.0,22.0,2.0,80.4,299.4,179.4,796.4,https://www.homegate.ch/rent/4003058405,561.7,846.0,,,10.0,1.0,3.7,2.2,7.0,,
4003056970,APARTMENT|FLAT,Linsebühlstrasse 18,St. Gallen,9000,47.4243014,9.38101,1250.0,2.0,27.0,1.0,101.9,315.8,315.8,1360.7,https://www.homegate.ch/rent/4003056970,377.0,1009.0,,,17.0,1.3,3.9,3.9,4.7,,
4003031530,APARTMENT|FLAT,Augustinergasse 26,St. Gallen,9000,47.4271195,9.3745587,820.0,1.0,30.0,2.0,112.4,375.5,89.4,706.4,https://www.homegate.ch/rent/4003031530,562.7,866.0,,,8.8,1.4,4.7,1.1,7.0,,
4002976777,APARTMENT|FLAT,Teufener Strasse 168,St. Gallen,9012,47.4088266,9.367849,1450.0,4.5,72.0,1.0,243.3,224.7,1331.7,3240.5,https://www.homegate.ch/rent/4002976777,2283.9,1659.0,,,40.5,3.0,2.8,16.6,28.5,,
4002975625,APARTMENT|FLAT,Lindenstrasse 155,St. Gallen,9016,47.4380454415402,9.4035892904114,1740.0,2.5,58.0,3.0,79.6,154.9,1141.8,2720.7,https://www.homegate.ch/rent/4002975625,2746.5,1576.0,,,34.0,1.0,1.9,14.3,34.3,,
4003033167,APARTMENT|FLAT,Sternackerstrasse 12,St. Gallen,9000,47.4256174,9.3838454,1090.0,1.5,33.0,1.0,193.6,562.3,115.1,1517.0,https://www.homegate.ch/rent/4003033167,639.7,948.0,,,19.0,2.4,7.0,1.4,8.0,,
4002986426,APARTMENT|FLAT,Grütlistrasse 6,St. Gallen,9000,47.4345979,9.4029288,990.0,1.5,40.0,0.0,92.0,80.0,750.3,2744.6,https://www.homegate.ch/rent/4002986426,2495.8,1144.0,,,34.3,1.2,1.0,9.4,31.2,,
4002981181,APARTMENT|FLAT,Oberstrasse 18,St. Gallen,9000,47.4184330977164,9.36738065306053,1435.0,3.5,92.0,2.0,112.0,565.2,600.6,1973.5,https://www.homegate.ch/rent/4002981181,1048.9,1807.0,,,24.7,1.4,7.1,7.5,13.1,,
4001956129,APARTMENT|FLAT,Lehnstrasse 10,St. Gallen,9014,47.40702,9.33408,1230.0,3.5,77.0,3.0,40.5,512.7,1279.6,4689.5,https://www.homegate.ch/rent/4001956129,4191.3,1688.0,,,58.6,0.5,6.4,16.0,52.4,,
4003098178,"APARTMENT,FLAT",Strebelstrasse 16a,St. Gallen,9010,47.443221942301,9.379311611558,1450.0,2.0,45.0,0.0,516.0,1427.0,2459.0,1853.0,https://www.homegate.ch/rent/4003098178,3125.0,1204.0,,,23.2,6.4,17.8,30.7,39.1,,
4003129433,"APARTMENT,FLAT",Müllerhofstrasse 73,St. Gallen,9000,47.416671942314,9.350431611588,1650.0,3.0,72.0,0.0,118.0,432.0,687.0,3460.0,https://www.homegate.ch/rent/4003129433,2997.0,1394.0,,,43.2,1.5,5.4,8.6,37.5,,
4003129160,"APARTMENT,FLAT",Linsebühlstrasse 56,St. Gallen,9000,47.425971942306,9.365361611578,2100.0,4.0,105.0,2.0,306.0,670.0,781.0,1323.0,https://www.homegate.ch/rent/4003129160,1319.0,2376.0,,,16.5,3.8,8.4,9.8,16.5,,
4003128784,"APARTMENT,FLAT",Tüfiweg 1,St. Gallen,9011,47.430921942308,9.398561611546,1580.0,3.5,83.0,0.0,106.0,231.0,289.0,2531.0,https://www.homegate.ch/rent/4003128784,2551.0,1621.0,,,31.6,1.3,2.9,3.6,31.9,,
4003128155,"APARTMENT,FLAT",Rorschacher Strasse 150,St. Gallen,9000,47.428071942311,9.396891611548,1690.0,3.0,72.0,1.0,262.0,504.0,477.0,2421.0,https://www.homegate.ch/rent/4003128155,2208.0,1366.0,,,30.3,3.3,6.3,6.0,27.6,,
4003127936,"APARTMENT,FLAT",Grossfeldstrasse 25,St. Gallen,9015,47.413471942319,9.331661611604,1690.0,4.0,96.0,1.0,456.0,466.0,925.0,5340.0,https://www.homegate.ch/rent/4003127936,5030.0,1981.0,,,66.8,5.7,5.8,11.6,62.9,,
4003127754,"APARTMENT,FLAT",Davidstrasse 40,St. Gallen,9000,47.423071942308,9.374991611562,1750.0,2.0,53.0,3.0,220.0,199.0,297.0,1353.0,https://www.homegate.ch/rent/4003127754,233.0,1405.0,,,16.9,2.8,2.5,3.7,2.9,,
4003127346,"APARTMENT,FLAT",Riethüslistrasse 55,St. Gallen,9016,47.446621942298,9.408081611539,1390.0,3.0,68.0,1.0,325.0,1056.0,2746.0,4220.0,https://www.homegate.ch/rent/4003127346,4886.0,1419.0,,,52.8,4.1,13.2,34.3,61.1,,
4003126981,"APARTMENT,FLAT",Notkerstrasse 18,St. Gallen,9000,47.426671942307,9.375531611561,2750.0,4.5,131.0,3.0,95.0,378.0,157.0,799.0,https://www.homegate.ch/rent/4003126981,568.0,2825.0,,,10.0,1.2,4.7,2.0,7.1,,
4003126698,"APARTMENT,FLAT",Rietlistrasse 18,St. Gallen,9016,47.445121942299,9.408581611539,1390.0,3.0,67.0,0.0,138.0,916.0,2570.0,4143.0,https://www.homegate.ch/rent/4003126698,4750.0,1424.0,,,51.8,1.7,11.4,32.1,59.4,,
4003126290,"APARTMENT,FLAT",Schertlinstrasse 15,St. Gallen,9016,47.4437719423,9.408231611539,1380.0,3.0,70.0,0.0,76.0,914.0,2373.0,4009.0,https://www.homegate.ch/rent/4003126290,4575.0,1392.0,,,50.1,1.0,11.4,29.7,57.2,,
4003126168,"APARTMENT,FLAT",Teufener Strasse 75,St. Gallen,9000,47.415671942317,9.36279161158,2580.0,4.5,126.0,2.0,152.0,904.0,546.0,2794.0,https://www.homegate.ch/rent/4003126168,1917.0,2394.0,,,34.9,1.9,11.3,6.8,24.0,,
4003125984,"APARTMENT,FLAT",Schertlinstrasse 15,St. Gallen,9016,47.4437719423,9.408231611539,1540.0,3.5,80.0,1.0,76.0,914.0,2373.0,4009.0,https://www.homegate.ch/rent/4003125984,4575.0,1611.0,,,50.1,1.0,11.4,29.7,57.2,,
4003125490,"APARTMENT,FLAT",Keltenstrasse 17,St. Gallen,9016,47.446521942298,9.407781611539,1590.0,3.5,82.0,2.0,295.0,1077.0,2718.0,4186.0,https://www.homegate.ch/rent/4003125490,4853.0,1580.0,,,52.3,3.7,13.5,34.0,60.7,,
4003124928,"APARTMENT,FLAT",Oberer Graben 10,St. Gallen,9000,47.425671942307,9.376041611561,3200.0,4.0,140.0,4.0,129.0,248.0,182.0,960.0,https://www.homegate.ch/rent/4003124928,404.0,2473.0,,,12.0,1.6,3.1,2.3,5.0,,
4003124483,"APARTMENT,FLAT",Schertlinstrasse 15,St. Gallen,9016,47.4437719423,9.408231611539,1690.0,4.0,89.0,2.0,76.0,914.0,2373.0,4009.0,https://www.homegate.ch/rent/4003124483,4575.0,1676.0,,,50.1,1.0,11.4,29.7,57.2,,
4003123466,"APARTMENT,FLAT",Zürcherstrasse 321f,St. Gallen,9015,47.415271942319,9.333911611604,1690.0,4.0,93.0,1.0,561.0,450.0,651.0,4992.0,https://www.homegate.ch/rent/4003123466,4724.0,1655.0,,,62.4,7.0,5.6,8.1,59.0,,
4003123363,"APARTMENT,FLAT",Fürstenlandstrasse 135,St. Gallen,9014,47.406671942328,9.371971611564,1830.0,4.5,102.0,2.0,857.0,806.0,2219.0,3915.0,https://www.homegate.ch/rent/4003123363,2631.0,2004.0,,,48.9,10.7,10.1,27.7,32.9,,
4003122973,"APARTMENT,FLAT",Schertlinstrasse 15,St. Gallen,9016,47.4437719423,9.408231611539,1790.0,4.5,96.0,3.0,76.0,914.0,2373.0,4009.0,https://www.homegate.ch/rent/4003122973,4575.0,1824.0,,,50.1,1.0,11.4,29.7,57.2,,
4003122762,"APARTMENT,FLAT",Grubenstrasse 15,St. Gallen,9000,47.430671942308,9.363991611579,2880.0,5.0,148.0,3.0,440.0,1394.0,1195.0,1126.0,https://www.homegate.ch/rent/4003122762,1813.0,2703.0,,,14.1,5.5,17.4,14.9,22.7,,
4003121628,"APARTMENT,FLAT",Guisanstrasse 22,St. Gallen,9010,47.440321942302,9.382481611555,1560.0,3.0,75.0,2.0,164.0,867.0,2014.0,1573.0,https://www.homegate.ch/rent/4003121628,2723.0,1575.0,,,19.7,2.0,10.8,25.2,34.0,,
4003120768,"APARTMENT,FLAT",Torstrasse 23,St. Gallen,9000,47.422471942309,9.369101611572,2150.0,4.0,112.0,2.0,44.0,49.0,342.0,1556.0,https://www.homegate.ch/rent/4003120768,860.0,2157.0,,,19.4,0.6,0.6,4.3,10.8,,
4003120213,"APARTMENT,FLAT",Rorschacher Strasse 150,St. Gallen,9000,47.428071942311,9.396891611548,1990.0,3.5,85.0,2.0,262.0,504.0,477.0,2421.0,https://www.homegate.ch/rent/4003120213,2208.0,1586.0,,,30.3,3.3,6.3,6.0,27.6,,
4003119227,"APARTMENT,FLAT",Brühlgasse 45,St. Gallen,9004,47.419671942312,9.368691611572,1650.0,2.5,67.0,2.0,125.0,372.0,525.0,1981.0,https://www.homegate.ch/rent/4003119227,1051.0,1491.0,,,24.8,1.6,4.6,6.6,13.1,,
4003118526,"APARTMENT,FLAT",Zürcherstrasse 321e,St. Gallen,9015,47.415271942319,9.333911611604,1490.0,3.5,82.0,0.0,561.0,450.0,651.0,4992.0,https://www.homegate.ch/rent/4003118526,4724.0,1559.0,,,62.4,7.0,5.6,8.1,59.0,,
4003117841,"APARTMENT,FLAT",Schertlinstrasse 13,St. Gallen,9016,47.4435719423,9.407931611539,1690.0,4.0,90.0,2.0,113.0,944.0,2329.0,3966.0,https://www.homegate.ch/rent/4003117841,4531.0,1664.0,,,49.6,1.4,11.8,29.1,56.6,,
4003116440,"APARTMENT,FLAT",Zürcherstrasse 321d,St. Gallen,9015,47.415271942319,9.333911611604,1390.0,3.0,71.0,0.0,561.0,450.0,651.0,4992.0,https://www.homegate.ch/rent/4003116440,4724.0,1444.0,,,62.4,7.0,5.6,8.1,59.0,,
4003115801,"APARTMENT,FLAT",Riethüslistrasse 57,St. Gallen,9016,47.446821942298,9.408281611539,1490.0,3.0,72.0,2.0,347.0,1053.0,2784.0,4255.0,https://www.homegate.ch/rent/4003115801,4923.0,1439.0,,,53.2,4.3,13.2,34.8,61.5,,
4003114963,"APARTMENT,FLAT",Schertlinstrasse 13,St. Gallen,9016,47.4435719423,9.407931611539,1590.0,3.5,82.0,1.0,113.0,944.0,2329.0,3966.0,https://www.homegate.ch/rent/4003114963,4531.0,1587.0,,,49.6,1.4,11.8,29.1,56.6,,
4003114437,"APARTMENT,FLAT",Zürcherstrasse 321c,St. Gallen,9015,47.415271942319,9.333911611604,1590.0,3.5,83.0,1.0,561.0,450.0,651.0,4992.0,https://www.homegate.ch/rent/4003114437,4724.0,1626.0,,,62.4,7.0,5.6,8.1,59.0,,
4003113906,"APARTMENT,FLAT",Schertlinstrasse 13,St. Gallen,9016,47.4435719423,9.407931611539,1790.0,4.5,97.0,3.0,113.0,944.0,2329.0,3966.0,https://www.homegate.ch/rent/4003113906,4531.0,1786.0,,,49.6,1.4,11.8,29.1,56.6,,
4003113384,"APARTMENT,FLAT",Zürcherstrasse 321b,St. Gallen,9015,47.415271942319,9.333911611604,1690.0,4.0,92.0,2.0,561.0,450.0,651.0,4992.0,https://www.homegate.ch/rent/4003113384,4724.0,1612.0,,,62.4,7.0,5.6,8.1,59.0,,
4003112854,"APARTMENT,FLAT",Schertlinstrasse 13,St. Gallen,9016,47.4435719423,9.407931611539,1390.0,3.0,70.0,0.0,113.0,944.0,2329.0,3966.0,https://www.homegate.ch/rent/4003112854,4531.0,1396.0,,,49.6,1.4,11.8,29.1,56.6,,
4003109891,"APARTMENT,FLAT",Lerchentalstrasse 42,St. Gallen,9016,47.451621942294,9.402131611543,2250.0,4.5,118.0,3.0,600.0,1929.0,3271.0,4241.0,https://www.homegate.ch/rent/4003109891,5145.0,2233.0,,,53.0,7.5,24.1,40.9,64.3,,
4003109620,"APARTMENT,FLAT",Schertlinstrasse 15,St. Gallen,9016,47.4437719423,9.408231611539,1290.0,2.5,60.0,0.0,76.0,914.0,2373.0,4009.0,https://www.homegate.ch/rent/4003109620,4575.0,1369.0,,,50.1,1.0,11.4,29.7,57.2,,
4003108411,"APARTMENT,FLAT",Schertlinstrasse 13,St. Gallen,9016,47.4435719423,9.407931611539,1290.0,2.5,62.0,0.0,113.0,944.0,2329.0,3966.0,https://www.homegate.ch/rent/4003108411,4531.0,1305.0,,,49.6,1.4,11.8,29.1,56.6,,
4003107285,"APARTMENT,FLAT",Schertlinstrasse 13,St. Gallen,9016,47.4435719423,9.407931611539,1490.0,3.0,73.0,1.0,113.0,944.0,2329.0,3966.0,https://www.homegate.ch/rent/4003107285,4531.0,1480.0,,,49.6,1.4,11.8,29.1,56.6,,
4003105965,"APARTMENT,FLAT",Schertlinstrasse 15,St. Gallen,9016,47.4437719423,9.408231611539,1690.0,4.0,89.0,2.0,76.0,914.0,2373.0,4009.0,https://www.homegate.ch/rent/4003105965,4575.0,1672.0,,,50.1,1.0,11.4,29.7,57.2,,
4003104543,"APARTMENT,FLAT",Schertlinstrasse 15,St. Gallen,9016,47.4437719423,9.408231611539,1790.0,4.5,97.0,3.0,76.0,914.0,2373.0,4009.0,https://www.homegate.ch/rent/4003104543,4575.0,1796.0,,,50.1,1.0,11.4,29.7,57.2,,
4003103240,"APARTMENT,FLAT",Schertlinstrasse 15,St. Gallen,9016,47.4437719423,9.408231611539,1390.0,3.0,71.0,0.0,76.0,914.0,2373.0,4009.0,https://www.homegate.ch/rent/4003103240,4575.0,1402.0,,,50.1,1.0,11.4,29.7,57.2,,
4003101676,"APARTMENT,FLAT",Schertlinstrasse 15,St. Gallen,9016,47.4437719423,9.408231611539,1490.0,3.0,74.0,1.0,76.0,914.0,2373.0,4009.0,https://www.homegate.ch/rent/4003101676,4575.0,1467.0,,,50.1,1.0,11.4,29.7,57.2,,
4003099820,"APARTMENT,FLAT",Zürcherstrasse 321a,St. Gallen,9015,47.415271942319,9.333911611604,1290.0,2.5,61.0,0.0,561.0,450.0,651.0,4992.0,https://www.homegate.ch/rent/4003099820,4724.0,1427.0,,,62.4,7.0,5.6,8.1,59.0,,
4003096913,"APARTMENT,FLAT",Schertlinstrasse 13,St. Gallen,9016,47.4435719423,9.407931611539,1590.0,3.5,83.0,2.0,113.0,944.0,2329.0,3966.0,https://www.homegate.ch/rent/4003096913,4531.0,1688.0,,,49.6,1.4,11.8,29.1,56.6,,
4003094875,"APARTMENT,FLAT",Schertlinstrasse 13,St. Gallen,9016,47.4435719423,9.407931611539,1490.0,3.0,72.0,1.0,113.0,944.0,2329.0,3966.0,https://www.homegate.ch/rent/4003094875,4531.0,1447.0,,,49.6,1.4,11.8,29.1,56.6,,
4003092753,"APARTMENT,FLAT",Schertlinstrasse 13,St. Gallen,9016,47.4435719423,9.407931611539,1290.0,2.5,63.0,0.0,113.0,944.0,2329.0,3966.0,https://www.homegate.ch/rent/4003092753,4531.0,1309.0,,,49.6,1.4,11.8,29.1,56.6,,
4003088551,"APARTMENT,FLAT",Tüfiweg 3,St. Gallen,9011,47.430721942308,9.398761611546,1780.0,4.0,100.0,1.0,72.0,261.0,314.0,2554.0,https://www.homegate.ch/rent/4003088551,2555.0,1866.0,,,31.9,0.9,3.3,3.9,31.9,,
4002977776,"APARTMENT,FLAT",Fürstenlandstrasse 135,St. Gallen,9014,47.406671942328,9.371971611564,2040.0,4.5,112.0,3.0,857.0,806.0,2219.0,3915.0,https://www.homegate.ch/rent/4002977776,2631.0,1984.0,,,48.9,10.7,10.1,27.7,32.9,,
